Station Name,Country,County,Operator,Visited,Visit Date,Favorite,Latitude,Longitude,2024,2023,2022,2021,2020,2019,2018,2017,2016,2015,2014,2013,2012,2011,201,2009,2008,2007,2006,2005,2004,2003,2002,2001,2000,1999,1998
Abbey Wood,England,London (City Of),Elizabeth Line,No,,,51.49106056,0.121394025,,"7,118,664","2,638,456","1,412,638","3,825,206","3,769,402","3,124,850","2,988,802","2,929,472","3,319,408","3,282,240","3,175,430","3,134,250","3,030,212","2,882,868","3,029,176","3,096,498","2,804,493","2,089,975","2,201,541",n/a,"2,425,400","2,400,216","2,443,651","2,355,943","2,284,585","2,060,584"
Aber,Wales,Caerffili - Caerphilly,Transport for Wales,No,,,51.57496911,-3.229829051,,"103,976","73,642","15,712","228,480","245,218","251,108","227,270","214,996","212,546","219,868","209,622","203,432","202,486","192,788","192,180","183,136","169,463","136,549","134,191",n/a,"134,397","115,667","115,079","112,812","87,910","88,714"
Abercynon,Wales,"Rhondda, Cynon, Taf - Rhondda, Cynon, Taff",Transport for Wales,No,,,51.6447124,-3.326988552,,"134,880","105,822","33,006","282,886","289,008","298,358","293,638","275,404","265,458","251,688","243,948","240,070","214,492","195,702","194,164",N/A,N/A,N/A,N/A,n/a,N/A,N/A,N/A,N/A,N/A,N/A
Aberdare,Wales,"Rhondda, Cynon, Taf - Rhondda, Cynon, Taff",Transport for Wales,No,,,51.71506183,-3.443084095,,"226,714","177,350","53,668","504,622","555,780","571,746","569,364","566,904","551,928","557,992","552,436","537,542","524,592","507,820","506,004","471,586","469,086","465,675","464,026",n/a,"331,006","302,859","260,244","219,986","178,680","158,945"
Aberdeen,Scotland,Aberdeen City,ScotRail,No,,,57.14370583,-2.098685386,,"1,961,414","1,536,720","393,982","2,497,108","2,616,142","2,948,150","3,058,268","3,459,944","3,742,646","3,599,431","3,338,072","3,170,464","2,964,302","2,657,014","2,568,810","2,470,281","2,278,872","2,107,855","1,931,973",n/a,"1,761,041","1,762,708","1,607,702","1,609,251","1,590,804","1,550,570"
Aberdour,Scotland,Fife,ScotRail,No,,,56.05459557,-3.300560615,,"78,952","62,990","14,726","126,340","140,048","135,240","125,208","127,312","129,474","127,470","124,298","126,000","129,786","131,874","128,074","121,724","120,420","109,580","112,941",n/a,"96,376","95,850","103,545","95,220","87,940","78,964"
Aberdovey,Wales,Gwynedd - Gwynedd,Transport for Wales,No,,,52.5439615,-4.057067962,,"34,208","22,886","5,396","36,560","40,390","37,706","35,960","38,094","36,684","34,450","33,612","36,696","32,190","27,996","25,418","25,093","23,365","20,461","23,299",n/a,"21,302","21,040","21,030","21,204","19,424","20,938"
Abererch,Wales,Gwynedd - Gwynedd,Transport for Wales,No,,,52.89858847,-4.374176474,,"2,040",396,0,"2,148","2,228","2,506","2,140","1,984",326,"1,380","1,214","1,786","1,620","1,326","1,258","1,261","1,095","1,027","1,038",n/a,498,473,735,516,426,513
Abergavenny,Wales,Sir Fynwy - Monmouthshire,Transport for Wales,No,,,51.81669304,-3.0096473,,"359,524","283,944","102,016","415,250","433,334","437,014","425,830","435,478","425,054","389,762","379,396","371,462","357,326","344,486","315,986","309,871","291,877","284,317","279,080",n/a,"265,131","255,005","253,782","257,341","235,702","236,640"
Abergele & Pensarn,Wales,Conwy - Conwy,Transport for Wales,No,,,53.29457716,-3.582622688,,"81,982","58,556","18,954","76,000","73,640","70,112","68,632","70,932","73,642","81,152","81,476","84,488","76,650","71,110","70,296","64,015","62,799","58,243","59,504",n/a,"59,422","70,387","72,107","79,777","74,439","75,835"
Aberystwyth,Wales,Sir Ceredigion - Ceredigion,Transport for Wales,No,,,52.41404989,-4.081894427,,"241,566","171,262","41,430","278,880","309,420","335,422","327,334","321,758","303,738","307,382","322,562","326,274","310,870","299,770","273,410","269,070","257,127","254,499","241,351",n/a,"218,498","211,239","203,326","213,891","198,030","186,024"
Accrington,England,Lancashire,Northern,No,,,53.75297338,-2.369548102,,"459,616","385,604","119,210","465,758","422,806","459,408","460,472","433,618","382,678","369,726","363,546","345,666","313,382","279,442","275,652","259,944","236,668","224,452","216,059",n/a,"179,836","195,302","210,698","205,432","186,631","188,245"
Achanalt,Scotland,Highland,ScotRail,No,,,57.60960187,-4.913852563,,282,342,26,326,394,434,424,312,482,228,164,162,200,202,230,208,173,198,192,n/a,186,163,173,278,298,336
Achnasheen,Scotland,Highland,ScotRail,No,,,57.57929592,-5.072333529,,"3,302","2,420",620,"3,234","3,284","3,310","3,076","3,700","3,722","3,972","3,566","3,998","3,698","3,614","3,202","2,974","2,697","2,471","2,379",n/a,"2,147","2,598","2,319","2,214","2,124","2,580"
Achnashellach,Scotland,Highland,ScotRail,No,,,57.4820809,-5.333056788,,752,650,130,836,820,870,878,"1,078",800,976,"1,054","1,084",738,778,646,655,540,593,691,n/a,664,586,481,525,734,822
Acklington,England,Northumberland,Northern,No,,,55.30709932,-1.651834796,,434,324,66,246,320,372,204,296,206,176,184,192,108,268,778,948,985,"1,137",917,n/a,727,471,"2,011","1,596","1,452",979
Acle,England,Norfolk,Greater Anglia,No,,,52.63467776,1.543914976,,"40,672","33,642","8,478","41,618","45,336","44,914","47,714","48,660","48,076","50,282","52,356","52,596","48,170","45,482","50,764","53,214","33,522","31,949","32,504",n/a,"36,454","53,588","56,231","51,204","44,022","42,298"
Acocks Green,England,West Midlands,West Midlands Railway,No,,,52.44932407,-1.818975622,,"304,906","271,554","138,884","551,230","541,810","497,834","468,256","450,122","427,480","415,420","388,592","372,326","381,938","384,260","383,698","161,363","160,128","149,570","149,101",n/a,"127,571","136,131","130,246","132,752","138,999","131,566"
Acton Bridge,England,Cheshire,West Midlands Railway,No,,,53.26650976,-2.603126907,,"33,040","30,838","8,482","27,976","22,578","21,058","20,092","20,236","17,486","16,612","15,732","20,044","17,242","13,658","14,480","11,373","8,913","4,162","2,709",n/a,"4,607","3,473","4,181","6,562","5,916","7,196"
Acton Central,England,London (City Of),London Overground,No,,,51.50871501,-0.262970693,,"1,499,036","1,332,790","727,052","1,753,806","1,887,162","1,907,986","1,931,864","1,891,098","2,940,598","2,837,592","2,238,244","1,818,018","1,339,536","956,922","1,112,142","1,373,736","1,334,016","416,037","358,142",n/a,"700,862","644,984","615,291","598,042","523,270","160,334"
Acton Main Line,England,London (City Of),Elizabeth Line,No,,,51.51717888,-0.26675644,,"1,099,704","321,076","125,954","350,930","310,962","263,590","238,536","262,212","454,106","442,054","383,980","349,636","346,756","264,122","336,108","393,785","309,456","87,880","115,209",n/a,"358,208","350,323","377,214","351,137","335,330","101,396"
Adderley Park,England,West Midlands,West Midlands Railway,No,,,52.48308729,-1.855944637,,"120,046","74,256","42,226","114,200","115,726","86,436","82,404","73,254","59,240","61,388","54,378","53,086","31,048","29,614","30,060","20,395","19,507","28,784","26,543",n/a,"28,174","28,784","31,897","32,567","34,327","38,620"
Addiewell,Scotland,West Lothian,ScotRail,No,,,55.84341308,-3.606527122,,"14,566","11,226","1,762","17,242","17,640","19,616","20,502","23,346","22,214","21,070","23,268","24,200","22,868","25,738","15,012","13,459","10,460","10,157","8,919",n/a,"7,555","7,357","6,478","6,838","6,652","6,947"
Addlestone ,England,Surrey,South Western Railway,No,,,51.37304475,-0.484456797,,"271,684","239,190","96,206","391,634","431,860","429,944","429,204","423,444","406,790","381,748","371,196","365,758","378,412","391,926","402,728","387,906","286,262","238,419","213,203",n/a,"174,214","193,263","220,552","255,128","210,893","225,081"
Adisham,England,Kent,Southeastern,No,,,51.2411978,1.199089047,,"23,470","19,464","7,368","27,624","27,600","25,584","21,218","21,454","22,374","24,058","28,388","32,046","36,938","45,560","49,002","55,873","58,776","53,857","53,898",n/a,"49,241","49,431","49,469","58,001","55,698","44,479"
Adlington (Cheshire),England,Cheshire,Northern,No,,,53.31955579,-2.133562744,,"18,782","17,284","5,114","27,278","31,390","33,152","30,316","28,390","23,174","20,736","20,252","16,822","15,852","13,618","16,224","15,974","16,050","16,194","12,318",n/a,"12,596","14,351","14,492","13,766","14,219","14,883"
Adlington (Lancs),England,Lancashire,Northern,No,,,53.61324685,-2.603071196,,"105,040","80,814","29,544","134,180","102,646","114,488","122,514","115,786","110,902","109,672","109,400","109,978","104,910","94,610","91,126","94,043","83,270","82,138","79,777",n/a,"74,122","93,030","99,256","92,456","81,925","87,459"
Adwick,England,South Yorkshire,Northern,No,,,53.57232101,-1.18035633,,"121,204","109,004","26,534","183,614","170,790","186,818","197,926","205,618","193,960","180,132","248,084","257,886","247,964","244,904","253,986","160,541","156,826","175,754","176,479",n/a,"115,496","118,995","137,124","161,888","135,959","88,633"
Aigburth,England,Merseyside,Merseyrail,No,,,53.36456801,-2.927155401,,"567,018","483,488","203,034","974,200","864,238","743,410","812,582","833,452","746,784","686,496","614,374","702,378","681,774","696,992","761,362","265,442","246,583","241,063","179,458",n/a,"146,283","133,724","141,935","150,190","142,020","135,081"
Ainsdale,England,Merseyside,Merseyrail,No,,,53.60203553,-3.042652521,,"920,626","768,028","321,382","1,127,850","1,016,242","928,028","1,023,510","1,004,554","983,858","956,960","899,420","960,772","972,616","955,328","998,438","345,791","328,423","322,911","289,260",n/a,"210,317","190,467","229,607","254,934","235,701","222,180"
Aintree,England,Merseyside,Merseyrail,No,,,53.47391276,-2.956280799,,"841,662","725,908","301,632","1,295,348","1,175,920","1,093,656","1,048,614","1,059,602","1,084,348","1,141,532","1,078,704","1,147,296","1,197,258","1,173,276","1,251,404","473,143","412,132","376,908","388,230",n/a,"284,514","242,879","255,994","267,449","244,779","236,070"
Airbles,Scotland,North Lanarkshire,ScotRail,No,,,55.78283784,-3.994193307,,"79,500","64,168","14,100","118,856","114,442","132,762","142,930","126,986","119,128","112,842","113,582","110,164","107,862","104,490","107,524","94,205","89,219","78,562","62,000",n/a,"41,145","38,034","45,936","48,240","46,086","42,628"
Airdrie,Scotland,North Lanarkshire,ScotRail,No,,,55.86398351,-3.982912925,,"632,798","476,662","121,496","1,009,104","1,098,012","1,118,132","1,086,244","1,074,866","1,104,190","1,079,692","1,154,032","1,158,642","1,191,156","1,054,910","1,067,384","988,115","994,172","952,361","909,986",n/a,"802,342","844,172","876,267","846,475","801,247","693,943"
Albany Park,England,London (City Of),Southeastern,No,,,51.43545074,0.125737066,,"622,490","509,626","213,044","972,604","1,006,946","954,906","966,726","991,150","1,048,330","990,096","945,350","917,874","913,852","919,586","969,360","964,636","937,865","764,994","727,796",n/a,"725,138","700,933","674,820","646,157","630,154","606,093"
Albrighton,England,Shropshire,West Midlands Railway,No,,,52.63794427,-2.268900245,,"69,556","56,078","16,886","99,316","101,548","98,872","99,380","95,322","89,410","89,358","87,842","104,902","79,232","77,240","77,216","63,997","56,118","49,847","44,289",n/a,"45,818","48,972","40,970","37,464","47,748","42,633"
Alderley Edge,England,Cheshire,Northern,No,,,53.3037821,-2.236799363,,"226,692","197,016","72,348","288,104","297,470","293,432","284,804","258,178","234,174","230,422","219,660","219,064","202,426","179,378","172,716","154,606","90,999","108,065","107,650",n/a,"112,810","121,050","118,007","126,774","135,491","138,171"
Aldermaston,England,Berkshire,Great Western Railway,No,,,51.40196186,-1.137423927,,"50,602","45,004","18,622","82,758","73,942","83,162","88,988","81,968","74,846","77,452","68,218","63,784","61,292","65,014","64,800","61,587","56,846","46,297","39,027",n/a,"43,919","44,317","48,318","45,642","45,571","44,391"
Aldershot ,England,Hampshire,South Western Railway,No,,,51.24641791,-0.759859888,,"1,093,476","888,372","364,844","1,283,830","1,367,252","1,394,782","1,437,614","1,465,212","1,434,250","1,401,204","1,448,130","1,469,676","1,492,704","1,406,724","1,441,470","1,415,479","1,277,324","1,196,067","1,121,499",n/a,"1,023,032","966,715","1,021,168","953,092","919,926","855,586"
Aldrington,England,East Sussex,GTR,No,,,50.83638241,-0.183821513,,"127,810","122,640","58,282","224,798","206,968","193,956","185,874","236,458","227,204","226,936","214,852","191,532","169,266","157,872","150,928","149,340","129,227","118,419","106,528",n/a,"91,941","95,840","83,580","85,544","78,043","63,843"
Alexandra Palace,England,London (City Of),GTR,No,,,51.59792249,-0.12023522,,"1,340,050","969,372","409,034","1,735,976","1,843,648","1,769,736","1,621,664","1,685,542","1,419,852","1,282,462","1,197,166","1,157,296","1,114,960","1,063,484","1,057,712","1,310,940","1,042,833","692,845","609,875",n/a,"592,357","523,460","491,852","515,642","476,131","412,146"
Alexandra Parade,Scotland,Glasgow City,ScotRail,No,,,55.86317598,-4.210648969,,"263,714","199,742","59,874","392,600","418,768","364,924","322,264","312,032","272,470","245,666","193,932","182,226","157,348","142,610","128,474","106,276","99,311","105,590","83,750",n/a,"48,028","66,252","82,836","65,298","26,072","20,211"
Alexandria,Scotland,West Dunbartonshire,ScotRail,No,,,55.98508877,-4.57748537,,"148,340","111,434","26,080","233,278","244,378","278,932","307,348","344,530","359,874","347,056","357,744","348,418","346,556","343,238","333,302","298,266","294,563","305,459","276,238",n/a,"270,904","285,191","308,072","335,803","337,257","274,790"
Alfreton,England,Derbyshire,East Midlands Railway,No,,,53.1004323,-1.369696216,,"289,838","245,910","61,690","311,030","314,464","294,758","292,130","282,880","269,698","241,066","224,866","212,016","205,306","187,552","158,850","134,946","156,614","153,909","150,999",n/a,"143,092","147,582","133,537","136,838","123,980","118,610"
Allens West,England,Durham (County Durham),Northern,No,,,54.52462337,-1.361116835,,"73,166","58,750","16,258","66,766","65,136","64,792","65,414","63,190","59,316","59,066","62,030","63,630","59,174","59,296","66,958","71,940","67,465","69,438","51,087",n/a,"45,197","41,386","39,146","37,221","31,938","28,475"
Alloa,Scotland,Clackmannanshire,ScotRail,No,,,56.1177936,-3.790056403,,"355,280","258,994","70,732","393,360","370,452","388,194","360,596","386,528","402,402","383,786","380,864","401,150","394,326","390,072","335,654",N/A,N/A,N/A,N/A,n/a,N/A,N/A,N/A,N/A,N/A,N/A
Alness,Scotland,Highland,ScotRail,No,,,57.69439917,-4.249717265,,"16,804","15,810","3,220","27,050","30,426","29,272","26,376","23,614","25,934","27,796","28,384","25,498","17,782","14,306","13,722","11,550","9,822","7,633","6,950",n/a,"3,717","2,530","2,788","1,917","2,275","2,221"
Alnmouth,England,Northumberland,Northern,No,,,55.39277864,-1.636637839,,"331,064","285,882","61,222","344,862","344,602","339,814","312,452","294,042","305,104","283,233","257,702","256,176","214,230","192,380","197,222","181,912","172,170","165,049","134,902",n/a,"86,436","89,266","91,053","92,305","83,956","72,864"
Alresford (Essex),England,Essex,Greater Anglia,No,,,51.85399744,0.997436403,,"63,450","47,180","15,816","65,602","62,994","61,752","69,720","68,436","62,098","57,480","57,342","58,734","62,516","56,012","50,888","46,833","48,966","45,144","49,386",n/a,"49,436","51,377","47,552","46,313","44,769","51,480"
Alsager,England,Cheshire,East Midlands Railway,No,,,53.09300541,-2.299057841,,"94,622","77,184","27,572","128,254","116,446","112,588","111,016","101,794","96,292","98,046","87,974","85,408","74,474","56,290","35,342","36,529","32,216","25,998","22,297",n/a,"25,350","30,219","31,690","36,544","41,990","41,649"
Althorne,England,Essex,Greater Anglia,No,,,51.64786753,0.752483415,,"21,908","18,576","6,736","39,690","43,816","40,788","44,538","41,456","45,346","43,006","38,346","37,012","36,708","35,084","42,418","46,917","34,042","39,640","43,158",n/a,"42,177","43,432","49,583","53,493","48,599","61,258"
Althorpe,England,Lincolnshire,Northern,No,,,53.58550035,-0.733182291,,"1,408","4,488","2,048","9,752","7,978","9,816","10,702","11,894","10,086","6,404","8,476","9,296","8,430","6,700","8,906","9,853","7,428","6,660","5,490",n/a,"2,783","3,322","4,408","5,006","5,681","5,143"
Altnabreac,Scotland,Highland,ScotRail,No,,,58.3881525,-3.706280968,,280,230,46,232,408,658,356,312,240,138,296,238,172,156,212,177,222,171,164,n/a,93,149,121,58,61,98
Alton ,England,Hampshire,South Western Railway,No,,,51.15196866,-0.966913303,,"496,032","386,882","133,396","679,324","711,292","710,322","716,162","753,202","744,138","697,306","720,584","717,170","720,478","706,582","650,674","625,926","548,291","498,254","480,790",n/a,"400,944","391,228","430,338","412,480","394,270","380,289"
Altrincham,England,Greater Manchester,Northern,No,,,53.38771872,-2.346889104,,"247,514","222,136","69,168","372,682","396,832","458,224","568,734","507,592","407,836","474,362","479,878","462,640","476,526","264,932","260,882","282,958","223,338","210,021","193,755",n/a,"146,100","183,800","192,583","198,719","203,942","212,746"
Alvechurch,England,Worcestershire,West Midlands Railway,No,,,52.34607212,-1.967660732,,"123,554","91,124","32,418","179,964","199,862","198,152","188,536","167,154","144,824","159,572","151,628","161,392","137,552","137,862","135,048","94,129","94,100","94,044","76,963",n/a,"68,407","68,306","67,479","67,124","80,110","62,955"
Ambergate,England,Derbyshire,East Midlands Railway,No,,,53.06051708,-1.480697582,,"33,162","27,852","8,956","41,552","41,130","46,552","46,890","41,506","39,122","39,848","38,444","39,952","39,600","35,842","25,868","19,807","17,222","19,006","18,655",n/a,"18,532","21,632","22,784","23,673","24,391","24,220"
Amberley,England,West Sussex,GTR,No,,,50.89667919,-0.541992408,,"60,580","44,318","17,084","59,806","60,296","53,704","50,596","57,828","58,380","58,738","60,674","61,468","48,994","49,006","48,570","40,397","38,292","34,295","33,103",n/a,"35,010","31,039","34,519","32,675","30,366","27,356"
Amersham,England,Buckinghamshire,London Underground,No,,,51.6742051,-0.607596139,,"1,563,462","1,140,340","450,702","2,067,212","1,991,780","1,940,360","1,958,866","1,944,310","2,133,978","2,164,370","2,035,452","1,784,008","1,713,718","1,218,936","1,059,766","1,510,922","1,805,767",N/A,N/A,n/a,N/A,N/A,N/A,N/A,N/A,N/A
Ammanford,Wales,Sir Gaerfyrddin - Carmarthenshire,Transport for Wales,No,,,51.79597955,-3.996735756,,"11,010","7,348",556,"18,016","19,596","19,934","19,428","18,968","20,238","19,912","20,412","18,892","19,256","17,524","16,506","14,782","12,163","14,627","17,463",n/a,"13,928","10,436","9,702","9,006","8,614","8,094"
Ancaster,England,Lincolnshire,East Midlands Railway,No,,,52.98768658,-0.535623734,,"7,548","6,160","1,798","5,006","5,904","6,572","7,162","7,356","9,910","8,878","7,408","4,042","4,388","3,764","4,652","5,238","6,109","4,641","4,468",n/a,"6,155","5,203","4,829","2,883","3,165","4,303"
Anderston,Scotland,Glasgow City,ScotRail,No,,,55.85990212,-4.270980032,,"228,506","217,646","119,942","715,074","728,408","711,556","661,282","624,644","633,668","602,826","630,822","647,182","576,912","551,894","561,906","428,595","381,946","340,728","240,667",n/a,"163,967","184,646","196,152","171,600","163,047","115,292"
Andover ,England,Hampshire,South Western Railway,No,,,51.21154761,-1.492233072,,"921,726","709,312","267,620","1,152,576","1,232,336","1,198,536","1,225,902","1,205,858","1,178,074","1,179,202","1,123,736","1,135,300","1,089,684","1,030,838","1,070,908","1,041,364","1,014,898","990,989","982,255",n/a,"833,452","785,952","760,806","690,449","632,178","588,571"
Anerley,England,London (City Of),London Overground,No,,,51.41215139,-0.065885922,,"900,882","727,730","325,286","1,033,264","1,043,346","994,266","973,012","887,484","760,490","735,932","688,280","628,650","508,902","380,320","387,558","407,730","389,392","235,382","239,360",n/a,"261,283","240,520","242,868","263,417","250,797","190,024"
Angmering,England,West Sussex,GTR,No,,,50.81657439,-0.489394019,,"733,842","677,210","290,554","859,340","826,622","801,006","699,978","865,380","882,480","883,150","864,926","819,488","764,818","690,682","678,478","659,931","614,236","553,609","526,011",n/a,"444,100","418,948","384,505","438,018","354,820","366,334"
Annan,Scotland,Dumfries and Galloway,ScotRail,No,,,54.98383888,-3.262581042,,"99,398","81,834","16,448","133,270","139,370","128,754","124,398","119,278","126,806","129,676","127,502","126,706","117,166","111,492","112,566","100,409","94,299","115,662","113,275",n/a,"89,753","78,959","75,838","64,923","49,566","36,056"
Anniesland,Scotland,Glasgow City,ScotRail,No,,,55.88935551,-4.321957842,,"735,448","564,808","173,104","1,144,568","1,136,078","1,195,190","1,218,022","1,154,430","1,133,042","1,066,714","1,145,740","1,103,308","1,047,958","998,824","962,696","848,987","808,956","775,049","662,422",n/a,"525,716","518,146","538,893","550,744","513,448","485,151"
Ansdell & Fairhaven,England,Lancashire,Northern,No,,,53.74146547,-2.993034447,,"40,982","35,218","9,476","42,386","32,240","32,482","40,528","38,794","36,794","41,812","59,344","41,518","40,238","35,424","36,544","36,242","34,237","30,608","26,801",n/a,"29,444","46,241","33,323","34,626","30,517","30,217"
Apperley Bridge,England,West Yorkshire,Northern,No,,,53.84175011,-1.705828671,,"362,988","263,090","91,410","394,558","375,794","372,436","350,312","96,418",N/A,N/A,N/A,N/A,N/A,N/A,N/A,N/A,N/A,N/A,N/A,n/a,N/A,N/A,N/A,N/A,N/A,N/A
Appleby,England,Cumbria,Northern,No,,,54.58034882,-2.486692584,,"52,674","47,476","11,232","60,310","57,526","60,254","61,446","53,036","57,078","62,600","60,992","68,884","70,808","61,984","61,904","61,781","61,886","66,449","62,521",n/a,"47,604","50,221","59,432","60,669","59,817","64,616"
Appledore,England,Kent,Southeastern,No,,,51.0332342,0.816341504,,"26,478","24,818","9,492","40,656","42,792","39,668","35,886","39,190","37,464","40,116","36,908","31,344","34,182","31,488","32,856","31,457","25,693","20,718","21,126",n/a,"15,459","15,678","15,984","19,399","18,030","19,577"
Appleford,England,Oxfordshire,Great Western Railway,No,,,51.63964155,-1.242141532,,"7,234","5,336","1,768","7,232","7,504","6,562","6,426","7,752","7,738","8,826","9,368","7,772","8,890","9,086","10,772","8,138","10,429","11,134","10,622",n/a,"7,157","8,046","7,363","8,745","7,231","7,197"
Appley Bridge,England,Lancashire,Northern,No,,,53.5786735,-2.719252513,,"130,716","127,662","39,006","226,782","224,338","231,150","246,606","247,246","243,034","241,738","241,314","237,396","226,086","220,060","206,156","178,291","174,175","171,572","146,150",n/a,"134,086","141,063","127,160","113,028","87,623","78,862"
Apsley,England,Hertfordshire,West Midlands Railway,No,,,51.73252082,-0.462934812,,"405,772","326,894","118,074","658,734","667,192","631,890","634,484","576,422","510,464","486,374","447,908","427,910","401,244","363,096","396,118","405,780","414,680","371,612","325,714",n/a,"247,521","253,407","247,220","281,238","244,116","230,131"
Arbroath,Scotland,Angus,ScotRail,No,,,56.5595763,-2.588931774,,"293,274","229,364","53,058","377,582","369,906","367,468","361,038","383,102","392,994","388,612","388,320","398,892","404,212","393,310","410,162","427,820","393,408","396,979","373,219",n/a,"284,392","279,723","261,208","251,994","241,169","237,251"
Ardgay,Scotland,Highland,ScotRail,No,,,57.88145761,-4.362090238,,"4,412","3,968",624,"6,408","6,998","7,140","7,144","6,732","8,416","8,806","8,108","8,890","7,404","7,388","6,516","5,851","3,964","3,067","2,297",n/a,"2,503","2,360","2,011","2,148","2,077","2,424"
Ardlui,Scotland,Argyll and Bute,ScotRail,No,,,56.30197237,-4.721658582,,"3,282","3,054",864,"3,982","5,622","5,104","5,426","5,072","5,074","4,566","2,216","2,260","2,092","1,970","2,212","1,870","2,383","2,344","2,309",n/a,"1,569","1,655","1,647","1,980","1,560","15,574"
Ardrossan Harbour,Scotland,North Ayrshire,ScotRail,No,,,55.63987823,-4.821111633,,"92,422","58,594","13,128","123,904","131,374","126,608","121,004","111,086","129,782","124,746","116,440","113,864","115,954","110,562","102,690","85,251","68,331","67,280","66,073",n/a,"59,444","55,827","54,443","54,001","55,398","58,758"
Ardrossan South Beach,Scotland,North Ayrshire,ScotRail,No,,,55.64142214,-4.801212641,,"143,200","118,668","23,670","215,924","220,638","229,512","224,466","221,090","219,186","218,638","241,502","235,224","229,090","216,002","219,852","201,388","191,782","186,954","180,767",n/a,"157,557","152,239","155,808","163,411","148,232","120,500"
Ardrossan Town,Scotland,North Ayrshire,ScotRail,No,,,55.63971246,-4.812676452,,"14,082","10,928","2,272","22,364","22,348","21,586","24,186","20,068","21,902","21,208","21,048","20,592","18,872","18,568","20,688","15,153","16,524","16,455","13,539",n/a,"7,132","7,954","9,060","9,445","10,691","10,226"
Ardwick,England,Greater Manchester,Northern,No,,,53.47134582,-2.213884175,,324,404,238,"1,520","1,238",882,860,896,542,568,616,584,668,754,574,479,456,358,285,n/a,281,591,407,473,486,920
Argyle Street,Scotland,Glasgow City,ScotRail,No,,,55.85730906,-4.250694863,,"809,914","773,154","382,016","1,311,820","1,295,376","1,411,372","1,413,190","1,382,948","1,438,396","1,369,928","1,336,662","1,196,468","783,634","734,756","748,878","606,397","616,686","574,278","467,305",n/a,"363,186","414,227","449,476","458,512","485,354","395,533"
Arisaig,Scotland,Highland,ScotRail,No,,,56.91255374,-5.839079499,,"4,196","3,802","1,072","5,942","6,226","6,886","6,262","7,058","7,596","7,394","7,390","7,526","7,622","7,076","6,188","7,290","7,636","7,086","7,228",n/a,"7,678","7,154","6,935","5,871","6,593","7,022"
Arlesey,England,Bedfordshire,GTR,No,,,52.02603001,-0.266319838,,"552,150","407,022","152,836","696,708","662,676","674,192","693,548","667,602","627,196","562,728","535,054","503,446","444,680","411,056","413,870","398,128","369,425","349,725","327,106",n/a,"256,882","254,655","225,525","218,291","228,141","191,235"
Armadale,Scotland,West Lothian,ScotRail,No,,,55.88571403,-3.695413343,,"172,918","134,362","35,928","251,770","260,082","249,778","238,688","215,390","186,334","164,696","141,076","126,088","11,170",N/A,N/A,N/A,N/A,N/A,N/A,n/a,N/A,N/A,N/A,N/A,N/A,N/A
Armathwaite,England,Cumbria,Northern,No,,,54.80946798,-2.772071473,,"8,430","6,988","1,700","9,510","7,616","7,100","2,180","5,950","7,786","8,130","9,194","9,554","9,684","10,128","10,266","8,057","7,984","9,698","9,489",n/a,"8,340","8,806","10,604","10,219","8,265","6,813"
Arnside,England,Cumbria,Northern,No,,,54.2027315,-2.828241892,,"91,330","100,034","28,764","115,338","96,348","103,168","110,610","109,736","114,090","115,464","110,032","102,426","115,862","107,698","102,314","105,084","92,774","90,928","89,182",n/a,"76,334","84,757","87,048","89,763","81,226","79,970"
Arram,England,East Riding of Yorkshire,Northern,No,,,53.88434277,-0.426570132,,598,738,92,828,"1,392","1,998","1,506","1,704","1,976","1,900","2,496","3,484","3,234","3,518","2,698","2,825","2,420","2,126","2,043",n/a,"2,154","2,653","2,555","1,964","1,863","2,304"
Arrochar & Tarbet,Scotland,Argyll and Bute,ScotRail,No,,,56.20397662,-4.722771247,,"16,958","15,400","3,824","18,288","20,192","17,800","15,742","15,236","13,618","10,662","9,232","9,546","8,784","9,012","10,038","9,569","10,067","9,171","7,998",n/a,"7,662","7,231","12,989","9,622","5,331","5,372"
Arundel,England,West Sussex,GTR,No,,,50.848214,-0.546174298,,"258,394","208,680","85,660","316,818","327,110","302,718","272,682","311,906","304,460","300,890","291,114","288,752","274,844","267,834","262,294","265,511","250,436","240,359","233,284",n/a,"220,660","213,769","209,470","199,683","191,996","186,796"
Ascot,England,Berkshire,South Western Railway,No,,,51.40624305,-0.675833255,,"821,410","550,756","154,666","1,118,622","1,234,810","1,212,682","1,247,078","1,255,918","1,225,750","1,179,120","1,143,716","1,140,482","1,084,438","1,014,440","1,081,070","1,045,853","1,008,215","789,039","939,510",n/a,"857,875","839,690","864,547","803,007","747,115","698,858"
Ascott-under-Wychwood,England,Oxfordshire,Great Western Railway,No,,,51.86734165,-1.564052809,,"1,628","1,162",638,"3,036","2,638","3,312","4,644","4,532","4,026","2,856","2,484","2,702","1,658","2,264","2,860","2,499","1,769","2,931","2,534",n/a,"2,050","2,104","2,337","2,641","3,135","2,310"
Ash ,England,Surrey,South Western Railway,No,,,51.24959677,-0.712805474,,"204,050","160,032","67,150","245,978","268,106","261,276","279,244","288,430","288,550","274,754","283,620","273,152","270,936","288,932","281,700","272,414","238,863","224,467","215,700",n/a,"200,666","186,269","201,313","207,728","188,358","181,615"
Ash Vale ,England,Surrey,South Western Railway,No,,,51.27224641,-0.721648596,,"303,058","227,016","88,390","421,022","459,054","466,782","480,854","488,636","474,462","454,772","452,824","452,036","437,436","437,858","476,558","471,787","407,035","398,287","395,265",n/a,"350,887","335,835","364,203","339,801","326,761","315,847"
Ashburys,England,Greater Manchester,Northern,No,,,53.47163972,-2.194436615,,"65,988","65,502","35,190","128,958","112,846","90,950","98,472","87,136","91,502","91,330","83,264","86,106","71,722","68,558","66,526","45,418","46,528","52,620","55,946",n/a,"51,278","49,417","47,606","50,336","54,823","56,391"
Ashchurch for Tewkesbury,England,Gloucestershire,Great Western Railway,No,,,51.99890579,-2.108760209,,"81,830","68,810","17,576","108,234","102,688","101,236","94,244","91,000","87,384","83,840","76,386","74,168","68,964","64,622","67,390","58,212","64,592","56,513","47,501",n/a,"49,180","48,937","49,217","50,319","38,212","30,814"
Ashfield,Scotland,Glasgow City,ScotRail,No,,,55.88892693,-4.249215094,,"52,060","45,230","23,920","66,384","84,458","83,486","50,340","76,500","80,470","74,160","76,390","69,676","54,662","58,046","53,040","43,850","42,469","38,735","39,944",n/a,"29,496","39,818","44,123","40,862","31,656","217,599"
Ashford (Surrey),England,Surrey,South Western Railway,No,,,51.43650626,-0.468070995,,"724,968","616,080","236,906","986,432","1,076,006","1,032,946","1,057,340","1,066,986","1,043,988","975,950","963,786","958,994","913,396","954,572","998,700","928,868","697,972","642,131","610,706",n/a,"534,929","535,611","592,735","622,159","524,094","503,480"
Ashford International,England,Kent,Southeastern,No,,,51.14370267,0.876197214,,"3,246,968","2,656,922","1,064,288","4,020,566","4,102,872","3,900,868","3,798,486","3,764,590","3,614,790","3,481,076","3,329,948","3,310,834","3,123,070","2,756,090","2,758,866","2,819,499","2,606,065","2,408,539","2,286,350",n/a,"2,072,300","2,005,787","1,942,014","1,822,014","1,791,672","1,710,114"
Ashington,England,Northumberland,Northern,No,,,55.1055,-1.3423,,n/a,n/a,n/a,n/a,n/a,n/a,n/a,n/a,n/a,n/a,n/a,n/a,n/a,n/a,n/a,n/a,n/a,n/a,n/a,n/a,n/a,n/a,n/a,n/a,n/a,n/a
Ashley,England,Cheshire,Northern,No,,,53.35572581,-2.341460743,,"7,902","6,666","1,918","8,224","8,030","8,114","8,680","7,578","6,362","5,856","7,174","6,676","5,478","4,328","4,740","3,870","3,898","4,300","3,378",n/a,"3,868","4,441","5,443","6,849","5,522","5,170"
Ashley Down,England,Bristol,Great Western Railway,No,,,51.4728,2.5767,,n/a,n/a,n/a,n/a,n/a,n/a,n/a,n/a,n/a,n/a,n/a,n/a,n/a,n/a,n/a,n/a,n/a,n/a,n/a,n/a,n/a,n/a,n/a,n/a,n/a,n/a
Ashtead ,England,Surrey,GTR,No,,,51.31787259,-0.307571764,,"847,384","696,822","261,410","1,272,990","1,308,084","1,264,878","1,317,284","1,329,660","1,296,434","1,249,748","1,205,956","1,176,568","1,095,148","1,056,286","1,048,224","1,035,665","925,232","874,137","830,308",n/a,"777,382","776,304","806,660","799,579","743,100","655,473"
Ashton-under-Lyne,England,Greater Manchester,Northern,No,,,53.49127464,-2.094312534,,"142,178","168,024","70,596","362,246","326,674","324,674","386,720","361,946","380,042","470,580","492,472","581,362","519,126","461,086","450,868","344,041","337,580","337,993","324,797",n/a,"245,428","234,825","217,484","195,198","145,901","156,595"
Ashurst,England,Kent,Southeastern,No,,,51.12866083,0.152652112,,"26,488","18,842","6,094","45,624","38,190","25,700","22,628","26,508","23,524","24,630","24,976","24,432","22,326","16,694","20,172","17,360","14,732","10,831","6,572",n/a,"5,058","4,567","4,634","5,685","5,439","4,517"
Ashurst New Forest ,England,Hampshire,South Western Railway,No,,,50.88985116,-1.526630857,,"91,488","74,566","30,792","134,242","153,670","144,608","131,592","129,164","124,132","117,340","109,842","103,642","101,108","88,710","88,500","82,733","71,275","56,768","49,102",n/a,"38,400","31,812","30,723","25,615","22,770","24,949"
Ashwell & Morden,England,Cambridgeshire,GTR,No,,,52.03077064,-0.109788918,,"140,696","104,212","34,748","159,254","156,490","152,372","150,384","144,158","138,638","131,148","119,042","130,196","115,720","112,350","116,908","104,417","108,013","96,452","98,481",n/a,"89,061","91,648","91,556","96,117","85,410","75,395"
Askam,England,Cumbria,Northern,No,,,54.18893316,-3.204511755,,"57,606","51,616","24,680","75,810","68,716","62,882","65,752","63,440","63,652","63,186","64,862","62,610","59,936","72,420","43,230","66,066","53,589","49,306","46,956",n/a,"44,909","43,798","49,787","45,545","49,199","65,877"
Aslockton,England,Nottinghamshire,East Midlands Railway,No,,,52.95154957,-0.898097622,,"23,472","15,914","3,736","33,438","31,204","24,942","30,572","23,766","22,226","21,100","15,704","15,912","14,644","13,712","18,334","21,473","21,363","18,538","16,064",n/a,"15,991","20,624","20,914","20,943","20,897","22,652"
Aspatria,England,Cumbria,Northern,No,,,54.75895991,-3.331874211,,"27,878","25,962","9,968","29,096","21,026","22,420","25,904","26,842","27,682","26,170","29,472","30,078","30,734","32,622","27,540","25,715","21,032","21,844","18,259",n/a,"10,826","12,178","12,672","14,321","15,905","19,620"
Aspley Guise,England,Bedfordshire,West Midlands Railway,No,,,52.0212362,-0.632334507,,"4,650","4,146","2,858","9,408","11,636","9,962","9,454","9,564","10,086","12,884","11,246","12,444","13,646","11,348","14,050","11,880","10,552","11,916","11,202",n/a,"10,986","13,749","13,360","14,795","16,762","21,944"
Aston,England,West Midlands,West Midlands Railway,No,,,52.50423203,-1.871933758,,"555,192","388,006","128,910","683,092","658,072","570,798","525,306","533,212","489,476","484,232","437,680","445,164","336,266","344,792","341,302","206,324","167,698","162,901","162,092",n/a,"153,463","149,696","125,757","136,444","131,436","133,530"
Atherstone,England,Warwickshire,West Midlands Railway,No,,,52.57897206,-1.552811476,,"98,690","95,118","29,300","151,174","171,606","148,934","143,476","141,494","120,764","99,974","83,342","77,564","65,340","40,006","10,630","4,757","3,162","1,425","1,658",n/a,"5,779","6,779","7,625","9,062","10,381","8,483"
Atherton,England,Greater Manchester,Northern,No,,,53.52914625,-2.478972344,,"192,862","179,860","65,272","329,668","288,906","295,810","338,164","436,000","441,830","433,766","448,934","424,058","410,512","367,554","369,202","239,276","231,362","225,721","200,086",n/a,"179,915","199,684","192,274","185,868","171,136","176,792"
Attadale,Scotland,Highland,ScotRail,No,,,57.39504337,-5.455578653,,"1,042",764,62,"1,228","1,322","1,170",938,820,784,998,658,968,526,478,472,469,439,398,325,n/a,216,231,294,234,314,259
Attenborough,England,Nottinghamshire,East Midlands Railway,No,,,52.9062133,-1.231415608,,"52,704","46,934","17,586","106,882","99,484","107,902","105,742","111,678","112,532","94,756","89,938","79,798","66,038","58,748","37,418","37,566","33,333","24,756","26,797",n/a,"31,116","29,554","28,839","28,436","29,895","30,430"
Attleborough,England,Norfolk,Greater Anglia,No,,,52.51454459,1.022347555,,"168,896","131,918","41,592","158,464","163,062","159,916","159,466","153,804","153,828","154,172","157,792","171,018","161,610","153,410","154,064","151,389","154,442","139,252","133,370",n/a,"65,840","48,530","48,457","46,141","46,531","41,828"
Auchinleck,Scotland,East Ayrshire,ScotRail,No,,,55.47027847,-4.295350187,,"44,532","35,324","5,162","72,080","77,754","67,404","61,838","61,986","62,658","55,966","57,124","55,768","48,584","37,818","35,758","35,729","39,006","37,773","35,915",n/a,"28,870","29,505","28,399","25,832","21,903","17,013"
Audley End,England,Essex,Greater Anglia,No,,,52.00444054,0.207160028,,"623,570","502,644","172,636","1,006,730","979,414","1,011,622","930,960","928,532","878,746","838,804","810,540","751,194","746,746","722,606","765,608","773,805","728,880","721,057","751,265",n/a,"762,515","773,260","735,296","739,673","671,952","647,508"
Aughton Park,England,Lancashire,Merseyrail,No,,,53.55425045,-2.89522128,,"139,550","112,192","37,232","218,496","204,282","180,544","200,604","187,670","183,340","179,740","78,136","78,530","96,224","109,592","124,736","85,699","89,200","83,012","86,413",n/a,"95,060","92,840","100,142","103,120","86,669","85,650"
Aviemore,Scotland,Highland,ScotRail,No,,,57.18851625,-3.828867976,,"112,090","92,240","25,492","132,618","138,490","147,964","145,200","152,082","150,724","141,311","136,456","132,052","132,336","124,972","121,090","115,431","101,294","91,456","80,977",n/a,"70,272","70,230","62,338","61,795","61,358","53,872"
Avoncliff,England,Wiltshire,Great Western Railway,No,,,51.33965287,-2.281325582,,"23,402","18,812","6,088","23,448","24,396","20,510","21,016","19,948","19,432","19,394","16,404","18,266","19,650","16,240","15,774","15,256","13,888","10,624","8,428",n/a,"7,928","8,812","8,866","7,700","6,313","6,440"
Avonmouth,England,Bristol,Great Western Railway,No,,,51.50036487,-2.699466518,,"109,936","88,332","46,076","127,142","107,752","123,932","144,110","129,860","119,924","111,440","97,880","88,642","83,674","68,448","61,948","44,468","47,834","43,365","33,815",n/a,"40,089","39,992","36,514","36,925","41,659","41,042"
Axminster,England,Devon,South Western Railway,No,,,50.77927441,-3.004723598,,"366,450","303,842","141,960","377,688","384,220","399,084","395,216","394,438","386,226","355,710","345,560","279,604","252,662","211,204","213,590","205,870","181,825","176,270","181,586",n/a,"167,029","174,790","208,879","221,027","204,535","208,433"
Aylesbury,England,Buckinghamshire,Chiltern Railways,No,,,51.81389022,-0.815095998,,"873,932","742,942","298,176","1,207,764","1,235,236","1,178,490","1,176,646","1,158,350","1,134,222","1,104,398","1,068,894","1,060,518","1,067,280","1,025,136","1,093,076","1,129,973","1,092,423","1,048,931","1,101,302",n/a,"939,033","957,599","946,496","893,701","841,798","695,298"
Aylesbury Vale Parkway,England,Buckinghamshire,Chiltern Railways,No,,,51.83115873,-0.860182438,,"103,744","86,896","36,706","206,834","203,266","185,748","169,164","168,610","128,644","100,886","81,696","73,130","55,864","49,212","13,042",N/A,N/A,N/A,N/A,n/a,N/A,N/A,N/A,N/A,N/A,N/A
Aylesford,England,Kent,Southeastern,No,,,51.30131536,0.466170568,,"109,192","117,816","41,442","166,018","162,366","144,792","122,554","115,314","115,906","112,666","107,356","98,924","96,396","96,178","97,428","92,776","80,375","83,218","62,484",n/a,"60,545","67,739","70,305","88,820","84,892","82,882"
Aylesham,England,Kent,Southeastern,No,,,51.22725054,1.209452683,,"103,126","96,992","44,884","121,648","120,244","109,050","88,752","83,346","80,828","68,376","68,472","71,356","72,766","74,004","89,906","93,672","97,712","89,758","78,255",n/a,"73,566","79,761","83,488","80,924","70,184","75,482"
Ayr,Scotland,South Ayrshire,ScotRail,No,,,55.45814774,-4.625876772,,"821,288","725,962","238,652","1,395,968","1,458,918","1,676,046","1,634,550","1,555,702","1,572,182","1,476,414","1,539,552","1,523,418","1,513,874","1,423,932","1,459,894","1,384,604","1,417,081","1,365,515","1,256,522",n/a,"1,153,577","1,097,949","1,137,686","1,180,367","1,152,157","1,143,214"
Bache,England,Cheshire,Merseyrail,No,,,53.20878869,-2.891670511,,"346,922","307,870","129,020","466,508","458,908","338,656","360,100","366,028","368,236","321,052","187,208","191,796","197,178","187,704","104,334","88,074","53,016","60,430","58,283",n/a,"50,475","32,398","45,089","60,259","64,575","68,257"
Baglan,Wales,Castell-nedd Port Talbot - Neath Port Talbot,Transport for Wales,No,,,51.61554527,-3.811136545,,"25,072","17,780","5,976","21,770","22,894","23,716","23,776","26,882","27,510","22,552","20,828","19,638","17,642","20,972","18,506","10,826","8,023","10,169","10,810",n/a,"12,576","11,605","10,401","14,414","18,400","22,781"
Bagshot ,England,Surrey,South Western Railway,No,,,51.36436694,-0.688661997,,"104,228","85,444","31,562","131,110","143,736","157,480","160,076","173,680","166,896","165,174","153,586","149,408","145,444","136,836","140,500","138,110","118,241","102,262","95,357",n/a,"81,653","82,815","89,985","88,198","83,978","85,014"
Baildon,England,West Yorkshire,Northern,No,,,53.8502255,-1.753636388,,"214,742","206,774","112,288","294,380","296,602","286,048","289,944","276,716","250,846","216,490","208,456","220,296","221,770","213,690","219,246","178,691","170,751","179,592","170,826",n/a,"145,848","148,490","165,490","167,284","158,946","149,539"
Baillieston,Scotland,Glasgow City,ScotRail,No,,,55.84450591,-4.113699318,,"117,350","93,060","29,156","175,460","149,914","159,510","156,480","126,234","112,870","111,966","114,694","109,156","97,056","89,118","81,434","66,369","57,376","50,550","48,120",n/a,"38,976","44,909","51,355","53,322","58,058","56,481"
Balcombe,England,West Sussex,GTR,No,,,51.05552016,-0.136933758,,"163,380","123,504","49,106","179,896","152,040","132,118","128,066","128,748","128,740","124,892","124,448","121,982","118,202","103,042","105,060","110,226","109,506","109,748","102,564",n/a,"89,872","83,045","82,158","87,713","91,253","79,801"
Baldock,England,Hertfordshire,GTR,No,,,51.99286983,-0.187563754,,"502,586","387,170","154,004","654,320","637,664","653,280","648,738","658,208","623,898","568,182","535,106","517,036","496,896","455,724","473,396","419,784","427,635","386,350","377,278",n/a,"331,732","315,216","315,713","288,326","264,542","229,353"
Balham,England,London (City Of),GTR,No,,,51.44322342,-0.152424496,,"4,175,938","3,688,758","2,043,894","7,823,990","8,140,418","8,463,278","8,750,756","10,114,526","7,643,798","6,916,220","6,784,734","6,463,982","5,935,140","5,052,242","5,084,538","5,543,764","5,455,384","3,236,366","3,161,416",n/a,"2,910,390","2,746,281","2,801,798","2,696,217","2,468,685","1,623,938"
Balloch,Scotland,West Dunbartonshire,ScotRail,No,,,56.0029393,-4.583486543,,"351,268","278,900","67,320","487,734","554,282","529,196","543,006","546,584","553,606","516,450","559,570","552,912","546,924","539,450","600,764","571,658","554,798","552,343","486,973",n/a,"463,350","448,533","453,307","476,617","458,641","381,198"
Balmossie,Scotland,Angus,ScotRail,No,,,56.47456856,-2.838956225,,834,"1,172",392,"1,524",984,698,"1,364",992,"1,092","1,446","1,078",314,362,804,406,615,"1,227",993,136,n/a,797,344,268,253,384,171
Bamber Bridge,England,Lancashire,Northern,No,,,53.72686917,-2.660775376,,"69,168","67,978","20,844","87,266","68,764","88,718","89,676","86,178","83,172","88,540","84,876","82,878","77,160","70,060","66,402","69,633","64,189","64,725","66,867",n/a,"57,613","64,268","66,713","69,066","63,942","64,814"
Bamford,England,Derbyshire,Northern,No,,,53.33900084,-1.689081915,,"49,270","45,520","20,208","43,746","34,526","31,624","30,514","27,922","28,628","27,774","27,044","25,050","25,656","24,442","23,836","22,836","19,547","18,621","16,618",n/a,"15,510","16,888","18,038","16,352","15,796","14,811"
Banavie,Scotland,Highland,ScotRail,No,,,56.84331461,-5.095426987,,"4,284","4,228","1,056","6,260","6,462","6,468","5,852","6,344","5,918","5,672","6,542","5,328","5,056","4,478","4,208","4,037","3,066","2,688","2,514",n/a,"2,918","2,467","2,072","1,335","1,763","2,036"
Banbury,England,Oxfordshire,Chiltern Railways,No,,,52.06030867,-1.328132895,,"1,813,406","1,885,448","630,722","2,870,216","2,787,266","2,618,632","2,488,760","2,429,822","2,336,852","2,180,646","2,055,032","1,942,390","1,857,004","1,706,264","1,579,510","1,469,985","1,289,983","1,174,068","1,137,434",n/a,"920,602","908,065","881,112","833,538","759,084","667,451"
Bangor,Wales,Gwynedd - Gwynedd,Transport for Wales,No,,,53.22228759,-4.13588086,,"578,010","444,790","106,520","624,926","658,934","662,040","657,050","673,626","670,770","662,970","680,102","676,858","633,664","591,978","550,714","564,158","547,163","537,511","534,185",n/a,"512,981","529,705","508,245","524,639","510,718","531,567"
Bank Hall,England,Merseyside,Merseyrail,No,,,53.43749655,-2.987511896,,"211,188","184,840","93,466","317,538","257,006","172,016","168,450","164,114","159,438","160,876","160,480","174,680","172,426","171,010","197,086","85,014","62,692","74,624","71,052",n/a,"51,477","55,234","65,474","72,990","66,950","63,232"
Banstead ,England,Surrey,GTR,No,,,51.32934748,-0.213158931,,"115,472","94,576","42,692","151,414","151,280","126,378","142,128","163,524","138,666","131,382","135,180","128,148","115,680","108,084","115,030","105,664","96,248","96,173","93,069",n/a,"83,873","76,135","65,428","74,255","64,362","57,053"
Barassie,Scotland,South Ayrshire,ScotRail,No,,,55.56106445,-4.651139668,,"112,118","79,534","15,150","168,448","171,492","184,288","173,818","169,762","166,310","154,304","147,896","142,508","137,708","135,110","138,066","121,452","115,655","110,837","106,653",n/a,"98,890","98,361","103,298","111,857","110,826","111,583"
Bardon Mill,England,Northumberland,Northern,No,,,54.97449579,-2.346504755,,"8,270","7,490","2,228","10,306","9,394","10,482","11,284","9,880","9,328","8,142","9,050","9,076","6,452","5,538","6,228","5,626","4,127","3,848","4,362",n/a,"4,801","5,154","7,951","6,506","7,408","6,200"
Bare Lane,England,Lancashire,Northern,No,,,54.07454434,-2.835330867,,"112,792","91,640","50,502","136,968","137,840","155,096","179,506","188,120","183,830","167,726","138,054","141,200","137,856","131,752","132,652","126,706","117,264","117,576","116,597",n/a,"101,181","113,211","125,093","123,624","125,886","118,851"
Bargeddie,Scotland,North Lanarkshire,ScotRail,No,,,55.85129615,-4.073808253,,"73,208","56,962","14,540","104,888","91,788","105,826","114,912","95,214","85,868","88,012","98,344","99,408","89,916","85,806","87,206","78,063","74,376","66,746","58,663",n/a,"37,032","36,886","36,684","42,010","43,333","39,959"
Bargoed,Wales,Caerffili - Caerphilly,Transport for Wales,No,,,51.69231276,-3.229680131,,"148,092","99,540","26,928","198,314","216,046","226,342","215,054","210,480","222,294","208,994","195,912","170,994","168,108","144,406","132,804","145,345","142,857","133,034","148,448",n/a,"175,852","173,904","169,313","150,606","127,187","122,544"
Barking,England,London (City Of),C2C,No,,,51.53949288,0.080902426,,"12,730,212","11,231,850","6,742,918","13,831,488","14,451,652","13,473,374","12,786,542","13,428,608","9,675,012","8,330,632","8,072,356","7,427,502","6,515,606","4,677,952","3,753,582","3,993,035","3,762,562","4,908,499","5,121,894",n/a,"4,687,665","4,413,389","4,199,567","4,022,445","4,054,507","3,091,467"
Barking Riverside,England,London (City Of),London Overground,No,,,51.51969,0.11605,,"461,384",N/A,N/A,N/A,N/A,N/A,N/A,N/A,N/A,N/A,N/A,N/A,N/A,N/A,N/A,N/A,N/A,N/A,N/A,n/a,N/A,N/A,N/A,N/A,N/A,N/A
Barming,England,Kent,Southeastern,No,,,51.28489269,0.478958087,,"204,946","160,132","42,146","172,590","168,764","142,338","142,850","136,362","129,926","127,656","124,318","126,984","123,140","124,816","143,552","139,892","134,178","121,260","116,214",n/a,"112,528","101,501","94,384","82,418","77,944","64,802"
Barmouth,Wales,Gwynedd - Gwynedd,Transport for Wales,No,,,52.72289547,-4.056596643,,"170,358","124,896","52,848","195,644","197,922","186,824","185,586","191,802","173,272","150,288","167,324","173,762","167,268","156,570","144,686","139,844","127,982","159,750","162,219",n/a,"174,204","178,920","185,081","145,639","130,195","141,139"
Barnehurst,England,London (City Of),Southeastern,No,,,51.46495716,0.159646216,,"841,032","807,202","375,632","1,553,586","1,646,204","1,744,582","1,758,466","1,775,310","1,777,802","1,695,802","1,599,146","1,590,024","1,586,718","1,510,580","1,566,210","1,686,615","1,590,107","1,176,408","1,224,619",n/a,"1,251,390","1,283,450","1,272,005","1,211,715","1,182,498","1,089,884"
Barnes,England,London (City Of),South Western Railway,No,,,51.46708478,-0.24216429,,"1,905,200","1,726,746","835,144","2,611,836","2,443,722","2,548,446","2,661,284","2,652,558","2,286,338","2,106,180","2,022,944","1,916,498","1,807,348","1,655,054","1,658,148","1,833,851","1,644,374","848,648","843,780",n/a,"846,344","818,183","882,741","808,160","747,353","579,097"
Barnes Bridge,England,London (City Of),South Western Railway,No,,,51.47200723,-0.252630234,,"684,578","603,620","285,718","1,019,214","922,602","862,758","895,376","916,476","763,888","710,756","681,764","626,008","580,988","516,968","487,906","503,736","352,079","143,772","118,487",n/a,"128,026","118,441","128,106","135,734","129,497","88,803"
Barnetby,England,Lincolnshire,Transpennine Express,No,,,53.57512005,-0.409679706,,"42,462","42,282","9,760","66,360","73,998","71,230","63,100","64,576","67,242","61,437","64,904","68,636","61,526","54,190","60,472","57,957","59,498","50,714","47,280",n/a,"40,051","37,872","36,822","35,803","31,733","30,896"
Barnham,England,West Sussex,GTR,No,,,50.83090585,-0.639679954,,"924,552","846,378","396,938","972,052","1,005,324","954,750","904,224","1,019,876","1,015,654","995,262","995,652","991,290","983,110","895,096","873,418","890,059","865,721","781,424","742,799",n/a,"709,641","649,261","607,982","583,313","554,098","577,052"
Barnhill,Scotland,Glasgow City,ScotRail,No,,,55.87749489,-4.223005844,,"54,494","42,560","10,424","82,236","91,680","68,668","65,858","72,362","73,016","73,612","63,900","60,864","58,932","62,678","62,520","54,900","51,126","54,216","45,594",n/a,"28,828","35,200","43,978","30,203","13,113","12,818"
Barnsley,England,South Yorkshire,Northern,No,,,53.55430155,-1.47716484,,"1,213,334","1,033,054","314,126","1,337,688","1,333,218","1,419,844","1,478,778","1,482,876","1,502,040","1,349,954","1,463,576","1,447,918","1,393,954","1,336,314","1,319,512","875,736","822,470","867,801","783,481",n/a,"613,238","624,456","679,859","687,011","634,282","620,135"
Barnstaple,England,Devon,Great Western Railway,No,,,51.07397447,-4.063117751,,"536,940","423,176","172,130","424,822","432,196","440,404","443,450","421,346","427,394","384,234","382,186","372,438","342,328","302,998","283,920","261,175","238,082","210,846","194,474",n/a,"176,682","163,473","155,934","179,926","201,367","201,967"
Barnt Green,England,Worcestershire,West Midlands Railway,No,,,52.36108984,-1.992466738,,"246,496","193,280","72,116","315,418","304,800","303,318","285,336","270,142","251,260","260,706","249,310","256,110","231,346","221,434","216,324","171,202","160,227","154,044","127,723",n/a,"133,502","135,142","140,381","143,568","151,830","127,871"
Barrhead,Scotland,East Renfrewshire,ScotRail,No,,,55.80375834,-4.397284314,,"437,280","349,332","151,356","760,512","761,664","734,456","738,126","688,976","680,272","655,514","669,082","648,646","616,386","579,136","605,634","562,908","551,209","511,073","472,629",n/a,"413,778","437,882","460,721","453,800","438,542","362,986"
Barrhill,Scotland,South Ayrshire,ScotRail,No,,,55.09701061,-4.781782291,,"5,024","3,430",768,"7,144","10,124","12,980","13,552","10,150","11,016","11,214","5,712","5,290","4,804","4,568","4,864","4,810","4,789","5,352","5,591",n/a,"5,543","4,830","3,840","4,765","4,103","5,628"
Barrow Haven,England,Lincolnshire,East Midlands Railway,No,,,53.69741995,-0.392955239,,478,790,184,"2,310","1,916","1,432","1,526","1,604","1,638","2,128","1,744","1,776","1,906","2,168","2,734","2,670","3,121","3,324","3,521",n/a,"3,103","3,992","3,489","3,802","3,236","4,292"
Barrow-In-Furness,England,Cumbria,Northern,No,,,54.1190037,-3.226120907,,"539,732","522,182","198,024","686,568","625,596","652,220","653,310","631,364","649,824","631,062","604,356","562,696","597,972","611,364","474,268","538,702","491,105","503,891","508,430",n/a,"469,623","504,090","515,941","504,133","489,456","485,303"
Barrow-upon-Soar,England,Leicestershire,East Midlands Railway,No,,,52.74933586,-1.144843059,,"75,716","58,688","23,794","100,446","91,964","80,610","87,792","98,708","93,010","89,374","79,664","75,350","71,362","70,356","62,372","53,635","52,143","49,964","45,241",n/a,"47,129","47,683","45,603","47,037","46,515","45,060"
Barry,Wales,Bro Morgannwg - the Vale of Glamorgan,Transport for Wales,No,,,51.39678627,-3.284984959,,"452,024","349,146","109,594","518,364","524,102","533,732","532,602","543,764","531,130","559,104","526,808","506,272","503,634","505,758","480,254","499,983","475,639","451,164","425,166",n/a,"464,258","462,217","413,286","374,687","336,765","314,086"
Barry Docks,Wales,Bro Morgannwg - the Vale of Glamorgan,Transport for Wales,No,,,51.40244528,-3.260703932,,"219,792","169,502","53,694","238,964","251,044","245,760","224,246","215,932","205,226","203,624","191,272","176,352","148,754","131,566","119,946","115,226","97,820","68,228","50,492",n/a,"122,269","149,097","141,421","131,114","115,493","116,700"
Barry Island,Wales,Bro Morgannwg - the Vale of Glamorgan,Transport for Wales,No,,,51.39241707,-3.273364009,,"367,594","303,684","110,356","762,042","832,222","753,404","711,812","653,778","608,204","621,224","592,354","617,212","618,346","561,490","577,924","559,976","557,109","584,474","626,912",n/a,"429,203","382,756","302,573","252,555","198,120","225,816"
Barry Links,Scotland,Angus,ScotRail,No,,,56.49315168,-2.745442147,,470,244,184,638,122,52,24,68,60,40,52,86,74,90,94,98,44,28,26,n/a,8,24,31,60,238,115
Barton-on-Humber,England,Lincolnshire,East Midlands Railway,No,,,53.68891774,-0.443436736,,"24,296","20,338","4,784","36,646","38,798","39,486","39,784","37,486","43,766","42,950","45,114","47,698","46,088","46,428","48,756","48,319","44,487","41,492","45,325",n/a,"49,555","53,205","45,507","46,291","46,010","50,289"
Basildon,England,Essex,C2C,No,,,51.56810403,0.456788851,,"2,394,160","2,023,524","1,065,228","3,112,414","3,267,698","3,233,788","3,180,178","2,955,948","2,810,112","2,764,400","2,667,746","2,621,518","2,486,796","2,429,748","2,529,874","2,538,275","2,289,222","2,160,305","2,117,293",n/a,"1,961,409","1,834,578","1,829,887","1,777,582","1,686,972","1,544,895"
Basingstoke ,England,Hampshire,South Western Railway,No,,,51.26835699,-1.087263832,,"4,004,066","3,662,208","1,279,258","5,702,326","5,979,370","5,794,622","5,694,954","5,739,458","5,561,414","5,373,748","5,261,426","5,184,930","4,903,644","4,639,966","4,807,902","4,596,490","4,394,401","4,161,704","4,084,424",n/a,"3,669,224","3,544,630","3,572,880","3,303,015","3,019,858","2,817,651"
Bat & Ball,England,Kent,Southeastern,No,,,51.28975875,0.19422748,,"170,732","133,826","51,838","147,320","130,830","128,908","102,356","88,946","83,866","78,182","74,214","75,694","75,416","81,820","104,142","107,680","91,963","71,586","68,671",n/a,"53,911","61,843","69,084","74,824","58,888","53,256"
Bath Spa,England,Somerset,Great Western Railway,No,,,51.37768839,-2.357018471,,"5,468,466","4,085,704","1,198,504","6,432,812","6,538,056","6,395,688","6,432,334","6,134,318","6,222,126","5,990,274","5,757,880","5,681,212","5,217,954","4,779,480","4,757,904","4,478,305","4,244,776","3,905,144","3,726,900",n/a,"3,332,671","3,108,318","3,009,640","2,933,619","2,760,990","2,681,441"
Bathgate,Scotland,West Lothian,ScotRail,No,,,55.89715638,-3.636096792,,"769,530","600,474","210,824","1,209,782","1,292,630","1,282,136","1,302,786","1,223,126","1,176,514","1,060,686","973,872","871,002","704,346","607,250","645,806","650,036","650,567","645,430","627,122",n/a,"599,101","581,048","581,867","598,028","502,379","420,835"
Batley,England,West Yorkshire,Northern,No,,,53.70994234,-1.622952632,,"264,888","240,882","90,188","341,800","341,942","338,324","351,166","330,878","315,250","296,046","263,850","276,764","272,638","241,766","237,212","149,896","144,722","138,196","122,371",n/a,"76,416","56,508","87,179","101,268","94,960","79,782"
Battersby,England,North Yorkshire,Northern,No,,,54.45768017,-1.092971863,,"2,164","2,736",396,"1,760","1,520","1,564","1,660","1,458","1,488","1,592","1,574","1,504","1,476","2,012","1,806","2,028","1,711","1,653","1,591",n/a,"1,314","1,455","1,611","1,667","1,515","2,014"
Battersea Park,England,London (City Of),GTR,No,,,51.47695829,-0.14753352,,"1,373,794","1,216,900","740,580","2,203,142","1,993,298","1,802,572","1,782,560","2,105,048","2,417,214","2,402,604","2,325,476","2,469,906","2,297,250","1,856,048","1,735,280","1,639,539","1,761,522","973,657","947,543",n/a,"1,590,085","1,760,988","1,704,488","1,637,116","1,419,781","657,105"
Battle,England,East Sussex,Southeastern,No,,,50.91291302,0.494702777,,"400,814","340,786","102,550","527,210","559,164","539,474","559,896","556,020","532,640","456,658","464,970","431,408","521,774","528,404","572,928","552,466","536,493","496,754","488,983",n/a,"466,281","455,809","442,352","450,251","415,936","418,412"
Battlesbridge,England,Essex,Greater Anglia,No,,,51.62482277,0.565285509,,"19,086","18,712","5,580","19,848","16,446","21,108","16,804","14,984","14,950","14,810","13,278","11,846","10,722","9,844","10,572","8,791","6,106","7,129","8,541",n/a,"9,256","8,369","8,905","8,258","6,698","6,748"
Bayford,England,Hertfordshire,GTR,No,,,51.75771489,-0.095610021,,"55,776","34,538","13,750","66,058","50,398","48,236","50,146","53,484","49,796","41,358","37,596","39,304","36,406","36,464","35,504","34,907","28,840","23,338","23,023",n/a,"16,995","18,848","18,613","17,278","14,527","12,991"
Beaconsfield,England,Buckinghamshire,Chiltern Railways,No,,,51.61129059,-0.643822282,,"964,906","727,082","227,076","1,509,092","1,627,052","1,625,908","1,598,250","1,570,746","1,558,378","1,490,066","1,440,418","1,374,402","1,320,232","1,307,226","1,276,736","1,272,423","1,127,628","981,711","1,085,861",n/a,"996,030","1,001,757","1,074,583","953,242","873,792","792,056"
Bearley,England,Warwickshire,West Midlands Railway,No,,,52.24441159,-1.75025548,,"1,380","1,394",306,"1,086","1,022","1,106",796,"1,062","1,222","1,220",670,960,944,"1,212","1,716","1,567","1,880","1,658","1,462",n/a,"1,983","2,194","1,469","1,397","1,421","1,793"
Bearsden,Scotland,East Dunbartonshire,ScotRail,No,,,55.91713458,-4.332021145,,"307,430","222,160","56,438","549,580","550,546","542,322","555,990","565,354","570,722","537,886","570,742","534,454","495,454","486,600","497,514","446,277","419,891","378,360","324,602",n/a,"256,252","308,414","339,093","349,570","340,143","327,813"
Bearsted,England,Kent,Southeastern,No,,,51.27581879,0.577580356,,"261,750","202,754","76,660","380,266","391,758","386,364","390,814","398,246","396,840","391,478","396,034","395,956","393,688","411,338","461,546","421,414","371,664","327,457","317,160",n/a,"294,887","303,337","309,822","301,498","276,907","284,085"
Beasdale,Scotland,Highland,ScotRail,No,,,56.89956107,-5.76380325,,170,162,0,324,342,418,312,366,472,506,410,376,378,272,200,213,307,264,349,n/a,489,706,420,381,513,691
Beaulieu Road ,England,Hampshire,South Western Railway,No,,,50.85504934,-1.504749627,,"15,446","11,832","4,038","12,040","10,586","9,034","8,858","9,228","8,380","10,730","10,094","9,794","7,026","5,178","4,568","3,791","2,246","2,435","3,114",n/a,"13,098","8,393","9,687","7,362","5,536","6,798"
Beauly,Scotland,Highland,ScotRail,No,,,57.47828794,-4.46986686,,"36,588","30,178","14,918","46,510","48,270","51,522","52,870","59,406","57,446","57,946","55,236","54,536","49,858","51,094","52,422","41,878","35,860","28,384","26,616",n/a,"21,337",23,:,:,:,:
Bebington,England,Merseyside,Merseyrail,No,,,53.35765707,-3.003635172,,"749,574","678,354","278,516","1,002,982","911,750","818,166","854,388","924,850","919,782","888,038","1,137,982","1,215,936","1,203,132","1,136,626","1,196,036","449,350","430,423","445,325","434,248",n/a,"343,218","360,991","363,822","374,564","355,164","356,107"
Beccles,England,Suffolk,Greater Anglia,No,,,52.45851819,1.569493262,,"111,814","97,838","17,682","110,152","114,302","110,772","109,906","108,800","105,254","101,280","85,040","78,822","83,762","82,146","89,826","84,990","62,499","57,290","59,686",n/a,"75,621","82,258","82,849","73,680","59,929","52,528"
Beckenham Hill,England,London (City Of),GTR,No,,,51.42458087,-0.015951114,,"311,510","265,130","128,708","392,668","356,958","339,644","329,790","328,086","339,222","312,312","286,772","283,128","281,612","267,730","297,360","294,597","217,750","152,015","140,899",n/a,"115,422","125,870","112,917","105,518","122,810","99,387"
Beckenham Junction,England,London (City Of),Southeastern,No,,,51.41117187,-0.026022564,,"1,451,438","1,273,842","558,164","2,550,644","2,705,700","2,780,258","2,777,104","2,713,014","2,794,134","2,761,006","2,677,450","2,625,644","2,633,876","2,564,452","2,668,134","2,765,028","2,444,386","1,864,281","1,760,816",n/a,"1,761,457","1,718,804","1,687,314","1,684,241","1,620,061","1,356,122"
Bedford,England,Bedfordshire,GTR,No,,,52.13618647,-0.47944238,,"3,035,712","2,324,364","837,192","3,870,440","4,058,190","4,001,640","3,941,364","3,830,074","3,713,333","3,471,747","3,303,270","3,314,880","3,175,274","2,980,542","3,199,084","3,184,488","3,033,827","2,828,638","2,770,367",n/a,"2,652,356","2,529,883","2,461,552","2,371,999","2,210,447","1,789,520"
Bedford St Johns,England,Bedfordshire,West Midlands Railway,No,,,52.12947724,-0.467501028,,"141,586","108,408","39,046","180,520","189,276","186,638","183,826","178,636","173,191","162,880","154,976","10,140","12,168","11,908","14,068","12,106",942,361,470,n/a,710,644,340,327,251,124
Bedhampton ,England,Hampshire,South Western Railway,No,,,50.85395664,-0.995828435,,"90,032","86,884","43,624","115,474","129,136","118,606","117,084","132,926","136,952","145,468","171,554","249,212","115,866","98,120","113,680","119,484","101,576","98,761","96,397",n/a,"85,957","78,399","77,157","81,107","81,908","85,079"
Bedminster,England,Bristol,Great Western Railway,No,,,51.44009042,-2.594149326,,"103,246","63,064","23,974","104,050","95,466","91,822","93,744","92,868","87,542","83,242","80,262","76,416","70,006","69,898","58,690","43,145","43,379","40,917","32,489",n/a,"24,817","25,685","23,542","21,031","19,372","17,431"
Bedworth,England,Warwickshire,West Midlands Railway,No,,,52.47929742,-1.467392233,,"54,536","38,414","17,444","102,112","101,306","91,708","85,310","83,086","77,628","70,106","61,598","61,130","53,116","36,568","29,296","23,401","19,717","15,447","7,274",n/a,"19,990","20,450","16,366","18,257","22,192","21,625"
Bedwyn,England,Wiltshire,Great Western Railway,No,,,51.37964094,-1.59878627,,"81,534","74,180","20,398","129,886","109,320","116,310","120,534","121,700","115,808","111,512","119,352","106,702","94,584","83,492","83,718","81,160","77,048","74,773","78,439",n/a,"87,568","83,150","86,160","78,216","60,387","56,750"
Beeston,England,Nottinghamshire,East Midlands Railway,No,,,52.92075512,-1.207658014,,"439,410","327,608","109,068","574,304","566,094","545,438","534,672","574,056","609,702","572,548","546,180","541,138","484,210","414,718","404,062","400,139","368,248","337,148","330,651",n/a,"364,841","323,087","288,058","264,529","223,250","207,023"
Bekesbourne,England,Kent,Southeastern,No,,,51.26135393,1.136707632,,"22,870","19,584","11,924","24,474","25,546","31,576","26,288","28,550","29,780","28,692","32,966","38,398","38,450","45,970","55,912","48,737","49,045","39,140","35,386",n/a,"28,266","29,289","30,315","35,456","33,575","32,298"
Belle Vue,England,Greater Manchester,Northern,No,,,53.46237649,-2.180507241,,"6,544","8,644","2,602","8,624","6,820","9,990","11,456","10,340","9,480","10,122","18,350","19,982","14,722","12,256","11,724","9,470","8,467","10,138","8,460",n/a,"10,755","8,993","12,128","13,154","13,292","13,728"
Bellgrove,Scotland,Glasgow City,ScotRail,No,,,55.85670931,-4.2243749,,"554,046","421,792","147,848","726,496","767,426","742,928","673,976","692,426","642,258","580,240","530,798","504,336","440,350","425,160","407,012","357,469","337,389","330,307","275,448",n/a,"198,431","225,363","255,662","239,991","232,759","197,631"
Bellingham,England,London (City Of),GTR,No,,,51.43291138,-0.019330808,,"552,154","462,028","242,312","828,264","809,272","800,444","781,452","809,492","795,658","730,948","656,868","648,618","627,854","599,644","658,568","675,381","617,205","484,386","464,090",n/a,"452,026","465,794","491,055","493,926","456,411","351,275"
Bellshill,Scotland,North Lanarkshire,ScotRail,No,,,55.81706824,-4.024499963,,"511,244","380,576","147,280","783,902","784,890","815,946","852,210","879,462","860,672","824,358","716,316","672,752","630,424","581,130","592,940","534,008","519,472","514,900","468,717",n/a,"427,587","449,587","442,386","452,137","447,336","323,729"
Belmont,England,London (City Of),GTR,No,,,51.34381342,-0.198855124,,"144,536","108,296","57,358","180,466","157,348","127,714","136,770","158,708","151,502","149,294","150,572","147,668","139,754","132,436","123,580","127,588","114,588","57,688","50,732",n/a,"31,251","29,388","25,265","26,007","22,935","19,637"
Belper,England,Derbyshire,East Midlands Railway,No,,,53.02375915,-1.4825105,,"168,490","145,814","50,948","236,080","210,692","233,370","230,244","225,426","210,040","193,358","177,420","173,512","160,872","134,938","93,380","79,196","77,564","74,449","77,856",n/a,"74,337","75,373","76,910","81,027","89,598","87,112"
Beltring,England,Kent,Southeastern,No,,,51.20470634,0.403495487,,"12,226","10,560","3,316","13,260","13,962","15,074","11,314","11,418","13,502","11,890","13,152","12,766","14,510","11,532","9,598","8,180","7,230","6,964","6,154",n/a,"6,929","6,889","6,455","7,554","5,570","4,453"
Belvedere,England,London (City Of),Southeastern,No,,,51.49211624,0.152286099,,"799,054","762,646","404,880","1,197,360","1,219,758","1,093,176","1,036,688","1,018,914","906,840","816,124","732,510","732,462","683,282","618,396","685,676","688,289","622,337","451,835","463,375",n/a,"458,016","411,177","389,981","361,854","347,902","337,684"
Bempton,England,East Riding of Yorkshire,Northern,No,,,54.12765806,-0.180456844,,"21,098","18,076","5,116","16,242","12,946","13,132","12,846","12,412","11,472","10,318","10,080","10,954","10,086","9,842","10,254","10,797","9,925","10,183","10,818",n/a,"8,758","9,662","9,048","9,932","9,099","11,859"
Ben Rhydding,England,West Yorkshire,Northern,No,,,53.92571533,-1.797430263,,"183,782","145,386","57,658","226,530","221,492","218,742","230,388","220,770","210,342","198,462","196,524","181,518","180,778","174,100","174,576","143,073","139,834","124,455","126,351",n/a,"102,267","96,319","110,184","114,187","114,857","110,047"
Benfleet,England,Essex,C2C,No,,,51.54394243,0.561713346,,"2,398,060","2,059,774","927,154","3,534,214","3,664,766","3,680,038","3,844,366","3,723,078","3,421,246","3,401,023","3,505,946","3,547,228","2,886,164","2,844,178","2,997,824","2,989,139","2,480,038","2,448,898","2,447,625",n/a,"2,447,364","2,444,863","2,409,798","2,449,104","2,406,865","2,293,681"
Bentham,England,North Yorkshire,Northern,No,,,54.1155197,-2.51067651,,"36,416","25,544","4,990","29,932","26,424","24,148","23,630","22,578","22,832","24,094","24,602","25,014","20,210","19,162","18,248","20,585","16,535","15,924","15,449",n/a,"11,616","13,472","15,164","14,692","13,436","12,973"
Bentley (Hampshire),England,Hampshire,South Western Railway,No,,,51.18123279,-0.8681269,,"82,486","64,764","20,640","132,018","144,020","145,672","141,706","150,558","150,858","142,748","137,916","137,392","133,794","122,004","119,270","115,569","104,859","93,589","87,973",n/a,"75,671","65,592","74,212","80,391","78,505","76,570"
Bentley (South Yorkshire),England,South Yorkshire,Northern,No,,,53.54393664,-1.150948595,,"112,702","94,042","23,024","150,832","130,044","131,276","130,434","140,724","131,306","119,032","156,884","161,514","152,994","153,550","159,788","95,264","98,641","123,292","114,419",n/a,"81,494","87,608","93,538","115,385","91,758","70,031"
Bere Alston,England,Devon,Great Western Railway,No,,,50.4855988,-4.200355437,,"31,090","27,588","12,052","39,462","40,250","39,710","40,978","39,570","37,082","38,762","42,128","44,792","41,666","36,272","32,112","28,936","26,866","27,263","29,552",n/a,"37,944","39,292","37,851","35,893","32,988","33,875"
Bere Ferres,England,Devon,Great Western Railway,No,,,50.45128208,-4.18143518,,"11,258","10,786","4,410","15,026","16,108","15,704","16,000","16,982","16,858","17,472","15,724","15,012","14,374","12,606","11,252","10,103","10,824","11,459","12,862",n/a,"17,808","15,898","16,634","16,136","14,614","15,184"
Berkhamstead,England,Hertfordshire,West Midlands Railway,No,,,51.76313308,-0.562012982,,"1,023,366","784,034","221,776","1,664,916","1,778,774","1,769,676","1,773,858","1,739,522","1,679,700","1,659,838","1,604,674","1,543,838","1,483,916","1,390,488","1,383,782","1,422,663","1,340,014","1,248,144","1,116,767",n/a,"1,042,408","1,054,681","1,058,979","1,084,531","1,011,545","991,866"
Berkswell,England,West Midlands,West Midlands Railway,No,,,52.39588193,-1.642840475,,"222,208","162,348","52,916","334,268","355,928","336,368","317,164","294,946","264,492","263,740","239,172","235,842","188,672","195,632","194,566","114,064","111,963","108,335","99,071",n/a,"108,875","114,561","111,528","112,931","142,605","93,203"
Bermuda Park,England,Warwickshire,West Midlands Railway,No,,,52.50143436,-1.472177755,,"21,942","25,612","10,000","38,078","36,088","28,378","20,106","2,384",N/A,N/A,N/A,N/A,N/A,N/A,N/A,N/A,N/A,N/A,N/A,n/a,N/A,N/A,N/A,N/A,N/A,N/A
Berney Arms,England,Norfolk,Greater Anglia,No,,,52.58978275,1.630375333,,950,868,348,42,442,966,"1,126","1,016","1,396","1,510","1,054","1,436","1,686","1,628","1,038","1,014",722,896,806,n/a,"1,105",845,817,775,789,756
Berry Brow,England,West Yorkshire,Northern,No,,,53.62104197,-1.793432283,,"25,202","21,828","9,694","24,544","26,066","29,466","30,316","32,906","31,056","25,360","25,978","27,388","31,256","30,246","27,950","23,109","22,249","19,306","19,572",n/a,"15,481","16,403","17,970","18,826","17,169","17,352"
Berrylands,England,London (City Of),South Western Railway,No,,,51.39904394,-0.280713668,,"288,216","233,480","88,366","373,514","400,700","382,686","374,746","374,332","405,862","389,012","378,024","374,064","359,072","339,894","375,638","354,882","329,473","174,464","191,698",n/a,"182,658","175,365","184,554","166,810","160,799","112,844"
Berwick (East Sussex),England,East Sussex,GTR,No,,,50.84037629,0.166017609,,"71,168","67,324","24,508","79,442","78,310","78,494","69,722","84,254","77,346","78,126","77,914","76,872","76,888","68,760","72,682","80,334","85,128","88,646","87,086",n/a,"82,633","75,668","75,733","74,783","78,705","76,104"
Berwick-upon-Tweed,England,Northumberland,LNER,No,,,55.7743389,-2.010973574,,"567,782","589,866","142,290","602,484","571,130","568,326","539,778","528,998","538,510","527,159","501,670","480,048","454,568","419,454","405,828","391,772","380,555","395,000","378,727",n/a,"331,108","314,909","290,715","308,299","290,697","278,947"
Bescar Lane,England,Lancashire,Northern,No,,,53.62385533,-2.914611002,,"2,190","2,516",572,"2,364","2,124","3,766","3,988","3,946","2,934","3,146","3,982","3,512","3,684","3,954","3,946","3,485","3,154","3,253","2,802",n/a,"2,151","3,665","3,650","4,309","4,044","4,547"
Bescot Stadium,England,West Midlands,West Midlands Railway,No,,,52.56309471,-1.991105719,,"134,194","90,614","23,772","172,432","174,876","158,478","158,840","156,020","136,440","136,546","128,946","132,930","87,908","83,552","84,206","48,155","55,030","46,444","46,963",n/a,"54,799","58,900","61,563","69,031","68,249","61,721"
Betchworth ,England,Surrey,Great Western Railway,No,,,51.24818793,-0.266973015,,"12,368","12,152","5,228","15,134","13,974","14,972","15,232","16,640","16,446","18,620","21,868","19,874","16,570","19,646","21,240","17,500","14,503","13,610","12,214",n/a,"10,705","10,435","11,818","13,629","14,851","14,001"
Bethnal Green,England,London (City Of),London Overground,No,,,51.52391566,-0.059568046,,"1,330,912","1,150,474","550,384","1,191,852","1,272,734","1,248,048","1,256,376","1,062,062","903,572","815,176","708,792","666,118","617,342","515,758","545,306","682,488","488,838","445,506","448,364",n/a,"385,488","342,374","309,671","318,473","304,516","67,948"
Betws-y-Coed,Wales,Conwy - Conwy,Transport for Wales,No,,,53.09207094,-3.800862122,,"33,322","24,716","3,040","23,126","35,364","35,322","36,286","35,872","41,484","35,400","34,402","38,352","32,390","29,516","28,572","30,507","26,032","26,047","26,206",n/a,"27,652","32,964","36,029","39,823","40,464","41,573"
Beverley,England,East Riding of Yorkshire,Northern,No,,,53.84227259,-0.422980127,,"603,634","518,028","124,538","682,496","658,662","693,222","673,076","637,620","608,448","604,014","594,636","611,450","590,004","581,698","597,998","593,243","598,321","604,883","590,634",n/a,"549,155","553,085","574,231","575,130","547,215","538,573"
Bexhill,England,East Sussex,GTR,No,,,50.8410399,0.477016592,,"1,399,580","1,297,516","581,730","1,502,382","1,448,466","1,327,850","1,207,046","1,524,654","1,509,550","1,577,690","1,622,548","1,648,316","1,432,174","1,288,774","1,224,568","1,164,787","1,086,787","1,009,791","941,613",n/a,"860,433","815,362","714,511","709,229","636,038","586,857"
Bexley,England,London (City Of),Southeastern,No,,,51.44021753,0.147902495,,"954,496","767,810","303,106","1,310,436","1,302,454","1,150,930","1,147,112","1,176,890","1,391,444","1,300,524","1,215,340","1,174,536","1,157,362","1,130,520","1,173,934","1,235,570","1,143,795","888,178","887,780",n/a,"883,457","869,925","807,659","758,264","729,734","683,230"
Bexleyheath,England,London (City Of),Southeastern,No,,,51.46349822,0.133734871,,"1,423,426","1,447,076","621,046","2,669,380","2,842,130","2,946,744","3,070,198","3,008,344","3,307,264","3,173,066","2,981,984","2,910,358","2,932,868","2,854,782","3,069,610","3,178,650","2,988,642","2,259,630","2,241,474",n/a,"2,226,389","2,153,938","2,140,637","1,991,526","1,988,220","1,871,227"
Bicester north,England,Oxfordshire,Chiltern Railways,No,,,51.90348295,-1.150383522,,"632,544","512,480","147,760","838,604","681,726","791,874","923,400","1,416,600","1,696,402","1,620,764","1,462,954","1,355,708","1,227,590","1,126,838","984,806","910,506","801,822","673,664","702,998",n/a,"596,326","560,086","546,649","462,698","378,029","321,912"
Bicester Village,England,Oxfordshire,Chiltern Railways,No,,,51.89302361,-1.148764252,,"1,610,596","1,177,866","374,742","2,265,112","1,777,700","1,978,986","1,311,238","413,432","88,440","207,896","214,416","213,224","157,446","104,788","59,964","51,902","43,950","48,685","50,197",n/a,"52,198","50,092","45,774","42,140","39,163","37,474"
Bickley,England,London (City Of),Southeastern,No,,,51.40010243,0.045240541,,"578,168","478,454","215,246","871,246","921,486","951,606","939,130","913,344","949,392","902,624","814,474","786,414","781,582","799,424","821,986","836,559","790,256","581,455","595,914",n/a,"618,412","587,141","581,116","585,818","574,715","449,593"
Bidston,England,Merseyside,Merseyrail,No,,,53.40913986,-3.078561102,,"270,874","236,994","109,252","398,678","344,100","288,614","287,080","319,994","321,194","293,272","264,780","275,716","273,150","262,836","285,816","119,162","108,835","99,798","95,455",n/a,"71,632","73,291","90,071","91,151","80,202","75,322"
Biggleswade,England,Bedfordshire,GTR,No,,,52.0846786,-0.261187193,,"753,050","592,254","227,702","1,033,622","1,038,164","1,058,184","1,029,086","992,082","943,358","858,474","819,356","788,120","739,632","703,386","734,458","751,155","689,369","653,872","638,358",n/a,"582,318","546,726","525,882","518,640","478,572","408,877"
Bilbrook,England,Staffordshire,West Midlands Railway,No,,,52.62371972,-2.186088018,,"102,336","79,802","19,808","123,790","133,688","128,606","126,188","117,998","113,350","120,548","119,124","128,628","100,234","93,616","75,336","39,835","32,044","28,096","21,318",n/a,"19,974","21,058","21,135","22,717","30,302","25,420"
Billericay,England,Essex,Greater Anglia,No,,,51.62888127,0.41862961,,"1,887,014","1,446,204","505,756","2,828,104","3,043,344","3,030,162","3,070,934","3,104,220","3,106,750","3,017,148","2,942,476","2,807,732","2,755,782","2,631,346","2,833,474","2,840,285","2,791,639","2,766,934","2,698,460",n/a,"2,718,642","2,666,076","2,708,274","2,696,925","2,609,637","2,489,424"
Billingham,England,Durham (County Durham),Northern,No,,,54.60560658,-1.279719686,,"77,234","75,062","23,126","91,504","78,004","81,862","94,994","86,016","75,980","73,493","68,720","71,328","68,428","67,854","71,490","69,375","62,181","55,751","43,972",n/a,"32,400","32,052","33,749","42,274","39,647","35,398"
Billingshurst,England,West Sussex,GTR,No,,,51.0152035,-0.450302233,,"390,872","310,228","110,222","488,230","484,148","458,618","418,566","484,872","497,524","484,242","464,588","438,058","437,230","421,450","444,812","462,423","436,546","375,505","356,015",n/a,"342,022","340,842","333,516","319,994","279,982","266,273"
Bingham,England,Nottinghamshire,East Midlands Railway,No,,,52.95419056,-0.951543354,,"63,540","55,774","14,442","79,410","77,128","68,964","67,216","59,018","51,778","39,786","36,682","36,822","34,512","31,212","29,974","29,457","25,181","26,134","28,053",n/a,"41,038","40,979","38,573","31,932","26,928","23,833"
Bingley,England,West Yorkshire,Northern,No,,,53.84861544,-1.837322499,,"920,000","806,822","320,374","1,173,342","1,207,142","1,244,924","1,254,652","1,219,714","1,224,412","1,182,242","1,153,256","1,211,654","1,154,644","1,040,072","1,012,816","749,834","721,405","692,168","646,309",n/a,"479,371","458,272","472,032","468,183","422,561","350,693"
Birchgrove,Wales,Caerdydd - Cardiff,Transport for Wales,No,,,51.52155972,-3.201853798,,"33,378","17,072","5,104","54,528","55,822","54,570","56,326","51,688","45,586","33,974","19,214","21,428","18,728","22,914","20,204","19,195","12,480","9,654","10,785",n/a,"42,096","49,866","50,373","49,284","41,717","44,575"
Birchington-On-Sea,England,Kent,Southeastern,No,,,51.37748869,1.301408355,,"307,846","282,836","122,366","405,730","410,808","414,440","377,512","342,430","324,674","291,776","269,146","270,194","266,722","273,564","278,552","272,103","257,582","250,204","229,263",n/a,"208,249","197,768","188,696","169,836","149,209","148,761"
Birchwood,England,Cheshire,Northern,No,,,53.41272059,-2.525308247,,"358,756","330,190","120,136","599,620","626,200","687,748","712,562","670,450","686,668","583,454","549,578","555,138","526,880","489,242","512,042","493,027","481,594","434,306","366,301",n/a,"307,124","324,246","329,745","314,871","298,419","300,482"
Birkbeck,England,London (City Of),GTR,No,,,51.40388998,-0.055738741,,"71,244","55,104","33,850","147,542","137,144","108,172","82,662","116,948","103,676","104,110","86,360","68,640","47,646","35,368","38,300","40,488","23,183","21,642","21,893",n/a,"53,615","54,031","48,379","47,250","41,309","14,713"
Birkdale,England,Merseyside,Merseyrail,No,,,53.63405281,-3.014450111,,"974,514","851,710","337,370","1,361,614","1,257,834","1,051,252","1,035,000","999,758","954,774","915,232","702,168","734,950","770,104","783,066","820,240","289,106","270,277","256,424","251,641",n/a,"164,753","165,271","193,709","215,279","210,396","192,065"
Birkenhead Central,England,Merseyside,Merseyrail,No,,,53.38831663,-3.020821158,,"627,194","595,500","317,518","922,770","835,662","891,934","933,834","965,262","1,062,924","910,378","948,380","1,005,212","995,676","960,376","1,030,798","452,358","427,186","439,743","411,631",n/a,"312,621","321,102","357,031","403,896","451,782","557,110"
Birkenhead Hamilton Square,England,Merseyside,Merseyrail,No,,,53.39469673,-3.013680166,,"1,294,758","1,223,206","530,284","1,822,344","1,619,752","1,952,444","1,940,846","2,017,478","1,723,020","2,237,746","2,363,224","2,523,974","2,507,430","2,429,424","2,623,342","1,051,091","1,133,624","1,238,532","1,146,052",n/a,"1,021,562","1,020,963","1,023,580","1,015,758","998,583","1,102,670"
Birkenhead north,England,Merseyside,Merseyrail,No,,,53.40443794,-3.057533659,,"878,478","681,208","298,418","1,074,168","920,880","800,276","756,368","771,214","744,004","682,940","842,260","903,218","869,784","821,990","881,912","338,946","307,927","280,060","251,957",n/a,"171,152","189,185","224,776","230,621","223,687","179,635"
Birkenhead Park,England,Merseyside,Merseyrail,No,,,53.39740859,-3.039101289,,"596,460","535,942","246,518","807,934","700,952","663,700","692,454","771,118","785,566","765,604","1,056,164","1,108,238","1,087,898","1,040,640","1,152,638","410,893","397,026","409,715","495,994",n/a,"472,335","505,308","521,846","526,038","499,639","487,346"
Birmingham International,England,West Midlands,Avanti West Coast,No,,,52.45080811,-1.72585686,,"4,185,090","2,411,308","512,176","6,519,612","6,975,002","6,742,828","6,468,034","5,772,848","5,128,792","4,858,978","4,523,404","4,348,756","4,444,278","4,228,378","4,122,370","2,576,096","2,448,241","2,201,350","1,946,537",n/a,"1,958,216","1,759,158","1,878,775","1,981,235","2,232,580","1,863,555"
Birmingham Moor Street,England,West Midlands,Chiltern Railways,No,,,52.47908062,-1.892472731,,"5,525,776","4,383,606","1,555,688","7,273,548","7,200,372","6,817,920","6,803,086","6,874,222","6,521,272","6,229,634","6,101,444","5,865,922","4,756,321","4,259,185","3,602,444","687,439","2,680,847","245,628","161,187",n/a,"59,938","64,594","85,481","113,230","123,567","115,860"
Birmingham New Street,England,West Midlands,Network Rail,No,,,52.47781981,-1.900205571,,"30,726,280","22,682,526","7,350,942","46,510,526","47,925,924","44,379,256","42,366,776","39,077,018","35,312,788","34,748,984","32,090,346","31,235,638","24,686,632","25,267,757","25,191,945","17,007,185","14,525,873","17,303,169","16,243,912",n/a,"14,220,536","13,335,383","12,458,229","12,718,225","12,832,341","11,420,880"
Birmingham Snow Hill,England,West Midlands,West Midlands Railway,No,,,52.48335668,-1.899088683,,"2,718,318","2,311,494","842,300","5,619,976","5,366,788","4,551,822","4,450,874","4,713,174","4,538,108","4,435,982","4,402,376","4,530,530","4,442,761","3,579,270","4,030,223","2,407,283","1,938,950","293,788","295,937",n/a,"225,085","232,379","226,712","180,301","205,166","131,395"
Bishop Auckland,England,Durham (County Durham),Northern,No,,,54.65719638,-1.677715097,,"153,564","146,166","51,274","158,052","155,378","123,144","118,742","110,060","107,966","109,035","101,974","100,810","94,732","95,428","96,712","94,785","85,063","74,092","66,681",n/a,"54,718","60,073","62,740","64,963","61,240","61,886"
Bishopbriggs,Scotland,East Dunbartonshire,ScotRail,No,,,55.90388318,-4.224915717,,"543,590","421,484","163,940","772,086","785,368","772,256","581,422","783,884","836,384","754,304","806,934","805,662","780,994","743,550","710,496","591,069","555,489","540,071","503,303",n/a,"353,622","379,588","422,394","467,233","501,256","408,153"
Bishop's Stortford,England,Hertfordshire,GTR,No,,,51.86668942,0.164894103,,"2,363,480","2,003,538","712,050","3,074,350","3,259,594","3,179,796","3,165,150","3,104,298","3,030,210","2,920,187","2,820,376","2,660,140","2,464,026","2,346,220","2,480,700","2,464,403","2,294,840","2,180,975","2,215,843",n/a,"2,166,675","2,113,070","2,072,274","2,047,026","1,908,324","1,395,609"
Bishopstone,England,East Sussex,GTR,No,,,50.78014166,0.082756921,,"43,104","36,450","15,878","41,660","39,422","33,686","20,320","28,982","30,934","30,876","31,852","34,558","30,432","29,632","28,784","27,542","24,041","18,099","17,128",n/a,"19,282","21,218","18,789","21,845","23,408","20,300"
Bishopton,Scotland,Renfrewshire,ScotRail,No,,,55.90226949,-4.500487563,,"551,566","403,328","123,580","782,688","747,094","676,866","621,054","654,250","633,360","586,772","508,308","479,758","500,338","523,238","536,964","509,551","518,678","503,955","470,520",n/a,"424,594","434,844","451,975","463,094","451,404","407,690"
Bitterne,England,Hampshire,South Western Railway,No,,,50.91822136,-1.376999614,,"65,298","55,388","19,646","75,634","85,280","95,832","89,798","97,946","104,102","104,568","96,668","86,720","83,608","69,454","67,920","56,813","51,123","46,477","47,315",n/a,"36,339","33,819","34,619","33,290","29,492","28,961"
Blackburn,England,Lancashire,Northern,No,,,53.74651845,-2.479122403,,"1,201,704","1,065,362","393,174","1,323,216","1,200,186","1,258,172","1,277,930","1,159,802","1,264,374","1,332,672","1,384,360","1,370,600","1,254,980","1,184,162","1,162,930","1,132,415","1,051,142","982,355","930,144",n/a,"781,561","805,586","823,119","822,041","777,119","829,758"
Blackheath,England,London (City Of),Southeastern,No,,,51.46579452,0.008871871,,"2,069,668","1,832,930","766,986","3,216,220","3,274,008","3,350,574","3,468,992","3,448,280","3,226,102","3,055,518","2,929,406","2,878,152","2,863,788","2,739,618","2,779,272","2,935,004","2,739,811","2,005,382","1,980,817",n/a,"2,280,945","2,248,699","2,292,727","2,366,786","2,333,350","2,057,115"
Blackhorse Road,England,London (City Of),London Underground,No,,,51.58660385,-0.041235743,,"1,932,462","1,753,120","972,286","1,838,242","2,014,394","1,428,396","774,220","2,013,700","1,101,636","813,532","828,002","669,054","444,802","184,472","69,904","115,906","169,067","22,593","26,143",n/a,n/a,n/a,"28,780",n/a,n/a,n/a
Blackpool north,England,Lancashire,Northern,No,,,53.82191809,-3.049275167,,"1,908,778","1,781,704","534,858","1,791,822","1,549,842","1,577,460","1,858,794","1,764,014","1,757,542","1,652,600","1,683,010","1,725,306","1,712,406","1,613,494","1,621,228","1,684,803","1,673,032","1,609,528","1,664,064",n/a,"1,572,280","1,692,788","1,664,030","1,632,602","1,582,417","1,642,020"
Blackpool Pleasure Beach,England,Lancashire,Northern,No,,,53.78795552,-3.05387647,,"133,082","137,134","47,680","126,928","115,456","106,832","105,466","107,040","109,172","90,960","85,914","94,972","81,994","67,476","52,758","40,597","30,016","24,463","28,545",n/a,"24,178","30,877","31,035","28,360","27,472","25,500"
Blackpool South,England,Lancashire,Northern,No,,,53.79870403,-3.048938326,,"104,564","97,984","30,040","100,488","104,480","117,230","127,530","126,162","131,434","136,768","132,356","144,368","130,674","120,294","106,822","105,193","94,084","83,004","82,804",n/a,"67,703","77,285","78,758","78,205","69,523","66,589"
Blackridge,Scotland,West Lothian,ScotRail,No,,,55.88425575,-3.750797434,,"37,282","27,086","6,522","57,178","59,780","58,030","56,894","53,194","51,470","47,330","42,646","43,262","12,394",N/A,N/A,N/A,N/A,N/A,N/A,n/a,N/A,N/A,N/A,N/A,N/A,N/A
Blackrod,England,Greater Manchester,Northern,No,,,53.59152449,-2.569524317,,"154,244","132,044","51,754","606,246","563,764","549,876","609,150","555,594","545,612","589,026","573,782","456,454","437,642","384,178","388,072","246,014","218,946","208,091","185,170",n/a,"148,256","151,660","157,887","199,540","123,472","96,638"
Blackwater ,England,Hampshire,Great Western Railway,No,,,51.33158115,-0.776741026,,"320,938","263,554","99,814","463,456","493,756","507,390","526,282","534,794","507,298","483,892","477,706","433,708","433,310","415,382","448,140","448,023","404,197","383,220","387,010",n/a,"333,268","339,807","332,907","300,206","282,197","266,706"
Blaenau Ffestiniog,Wales,Gwynedd - Gwynedd,Transport for Wales,No,,,52.99455308,-3.938595772,,"29,810","17,958","1,500","24,832","39,102","39,932","40,710","35,826","47,666","44,828","44,638","47,810","42,726","38,330","33,368","36,569","19,272","23,553","25,700",n/a,"35,381","42,198","38,984","41,487","41,535","39,621"
Blair Atholl,Scotland,Perth and Kinross,ScotRail,No,,,56.76555047,-3.850228766,,"13,402","11,870","3,688","18,388","21,008","19,802","17,598","16,652","16,062","14,084","14,280","12,608","13,948","11,572","10,580","10,443","10,491","11,896","11,708",n/a,"8,613","8,573","9,341","10,893","10,776","10,710"
Blairhill,Scotland,North Lanarkshire,ScotRail,No,,,55.86645562,-4.0432912,,"290,164","203,126","54,710","474,076","491,822","489,328","482,954","462,604","449,698","447,906","562,228","568,018","582,370","588,244","619,272","602,816","606,403","580,520","534,739",n/a,"508,538","507,397","559,060","499,376","507,489","456,535"
Blake Street,England,West Midlands,West Midlands Railway,No,,,52.60488607,-1.844914597,,"264,252","198,912","65,766","427,322","435,334","394,022","380,216","378,066","343,992","338,302","306,770","313,772","325,996","331,756","338,852","183,992","175,868","172,107","168,438",n/a,"153,989","158,150","153,721","174,789","280,816","167,506"
Blakedown,England,Worcestershire,West Midlands Railway,No,,,52.40640266,-2.176865661,,"72,972","60,810","38,914","99,500","97,242","111,280","95,164","97,028","91,698","89,252","83,008","83,314","76,114","85,166","70,870","61,109","53,365","40,636","28,311",n/a,"32,008","35,732","37,765","43,091","45,498","45,322"
Blantyre,Scotland,South Lanarkshire,ScotRail,No,,,55.79733048,-4.08697165,,"312,248","234,322","64,912","515,938","511,822","551,508","567,570","610,730","623,058","602,544","560,532","527,100","490,204","459,820","460,462","410,401","382,883","340,118","272,911",n/a,"207,174","221,896","239,529","256,880","254,274","200,559"
Blaydon,England,Tyne & Wear,Northern,No,,,54.96578969,-1.712580889,,"44,158","28,824","9,392","32,842","21,428","14,116","15,128","13,466","11,880","5,002","2,770","4,220","4,284","2,752","3,828","3,566","5,768","4,166","3,881",n/a,"2,150","2,999","1,921","2,570","2,865","3,471"
Bleasby,England,Nottinghamshire,East Midlands Railway,No,,,53.04136495,-0.943687538,,"5,284","3,742","1,472","8,688","7,426","8,014","6,808","5,938","4,538","3,798","4,920","4,058","3,852","4,614","5,140","5,403","5,208","4,606","3,868",n/a,"4,555","4,190","4,518","4,761","5,954","7,393"
Bletchley,England,Buckinghamshire,West Midlands Railway,No,,,51.99533397,-0.736320507,,"734,210","581,148","242,554","1,139,094","1,135,190","1,066,282","1,081,728","1,062,872","988,918","927,512","881,064","849,364","807,790","715,226","723,652","732,326","688,677","681,556","677,429",n/a,"669,043","665,967","644,989","672,816","648,953","666,424"
Bloxwich,England,West Midlands,West Midlands Railway,No,,,52.61820188,-2.011478072,,"75,046","60,324","14,794","55,014","49,186","44,198","49,672","43,728","40,184","43,540","41,808","39,170","42,726","42,602","38,490","24,003","21,129","16,317","16,080",n/a,"17,278","16,457","18,082","18,349","16,760","16,603"
Bloxwich north,England,West Midlands,West Midlands Railway,No,,,52.62543785,-2.017684611,,"77,770","59,526","11,460","55,878","47,238","41,808","51,300","46,730","40,944","47,426","44,464","45,444","49,742","42,904","41,036","26,634","23,824","20,927","18,583",n/a,"16,425","15,303","15,163","15,864","17,033","19,230"
Blundellsands & Crosby,England,Merseyside,Merseyrail,No,,,53.4876867,-3.039860286,,"1,365,008","1,196,618","482,154","1,829,110","1,667,950","1,437,202","1,470,212","1,411,140","1,369,650","1,324,328","1,532,170","1,643,472","1,735,882","1,717,962","1,839,920","599,071","561,676","518,823","457,346",n/a,"296,685","295,520","358,389","414,149","377,834","362,685"
Blythe Bridge,England,Staffordshire,East Midlands Railway,No,,,52.96814397,-2.066961365,,"72,300","70,590","26,082","91,124","91,610","95,564","95,918","91,354","78,470","68,444","60,632","64,000","60,162","52,468","42,732","38,383","37,220","31,389","31,136",n/a,"33,571","38,362","37,617","39,184","41,701","46,971"
Bodmin Parkway,England,Cornwall,Great Western Railway,No,,,50.44586866,-4.662929531,,"261,416","230,370","75,998","243,344","234,030","240,996","236,190","234,792","237,776","225,296","238,616","248,566","235,876","221,616","225,140","203,061","185,498","166,743","158,172",n/a,"144,146","146,191","140,472","144,723","135,510","129,428"
Bodorgan,Wales,Sir Ynys Mon - Isle of Anglesey,Transport for Wales,No,,,53.2043074,-4.418004246,,"4,956","4,302",682,"5,030","5,394","5,552","4,956","5,316","5,678","5,638","7,736","8,406","7,314","5,354","3,966","4,199","4,939","3,626","3,754",n/a,"2,740","4,139","4,016","4,302","4,024","3,212"
Bognor Regis,England,West Sussex,GTR,No,,,50.78655844,-0.676178286,,"1,025,024","906,780","425,796","1,073,764","1,094,562","1,038,012","971,848","1,202,460","1,236,794","1,231,386","1,237,174","1,220,262","1,190,612","1,132,818","1,135,006","1,145,011","1,089,805","988,758","951,144",n/a,"905,682","827,055","760,663","708,874","630,891","660,885"
Bogston,Scotland,Inverclyde,ScotRail,No,,,55.93704739,-4.711402177,,"19,470","16,298","3,184","35,706","37,860","41,486","38,798","41,766","38,456","38,130","29,902","62,992","25,744","25,724","25,634","18,792","17,282","14,531","12,727",n/a,"11,397","12,630","8,069","14,071","21,920","18,793"
Bolton,England,Greater Manchester,Northern,No,,,53.57414554,-2.425824976,,"2,499,322","2,344,116","865,704","3,262,460","3,074,022","2,950,270","3,240,136","2,866,316","3,518,716","3,695,050","3,583,392","3,262,442","3,059,186","2,833,866","2,743,684","2,097,879","1,952,364","1,929,990","1,867,937",n/a,"1,612,794","1,718,128","1,720,713","1,654,816","1,544,638","1,575,866"
Bolton-upon-Dearne,England,South Yorkshire,Northern,No,,,53.51894703,-1.31154616,,"63,436","62,824","17,376","75,644","69,520","75,168","74,764","75,196","77,730","66,180","64,888","59,988","61,180","63,374","64,512","51,209","56,048","59,983","54,759",n/a,"37,991","38,990","42,504","46,106","44,512","45,255"
Bond Street,England,London (City Of),Elizabeth Line,No,,,51.51414848,-0.148545296,,"19,400,416",N/A,N/A,N/A,N/A,N/A,N/A,N/A,N/A,N/A,N/A,N/A,N/A,N/A,N/A,N/A,N/A,N/A,N/A,n/a,N/A,N/A,N/A,N/A,N/A,N/A
Bookham ,England,Surrey,South Western Railway,No,,,51.28873758,-0.384020685,,"168,054","133,660","45,452","290,572","322,142","321,086","331,782","333,282","318,842","304,773","307,088","294,908","273,536","279,954","278,964","248,785","186,330","165,378","160,940",n/a,"154,323","151,816","178,291","196,590","175,748","170,395"
Bootle,England,Cumbria,Northern,No,,,54.29130583,-3.393862272,,"11,966","12,154","4,616","17,226","13,386","10,870","11,850","12,172","13,862","11,496","13,312","12,796","14,946","15,582","17,828","14,403","14,512","12,537","13,397",n/a,"9,290","12,906","14,176","13,936","14,698","14,686"
Bootle New Strand,England,Merseyside,Merseyrail,No,,,53.45339177,-2.99474774,,"747,492","789,718","398,572","1,221,302","1,026,300","966,082","982,592","976,556","974,574","952,994","842,682","911,870","931,806","909,922","977,696","405,802","348,458","404,558","415,685",n/a,"345,451","326,335","382,541","347,470","259,099","248,012"
Bootle Oriel Road,England,Merseyside,Merseyrail,No,,,53.44662392,-2.995733892,,"584,074","503,766","224,108","842,670","787,114","649,772","637,608","642,868","617,332","598,050","475,814","511,164","521,576","511,614","523,944","209,041","249,030","203,956","155,295",n/a,"57,791","58,289","78,936","132,547","154,901","148,767"
Bordesley,England,West Midlands,West Midlands Railway,No,,,52.47187438,-1.877768855,,"9,088","10,038",120,"24,180","20,688","18,416","15,092","13,350","11,638","12,434","12,592","14,134","7,306","7,410","5,594","3,996","3,697","3,551","9,981",n/a,"1,438",878,"1,495","1,454","1,077",930
Borough Green & Wrotham,England,Kent,Southeastern,No,,,51.29321702,0.30624496,,"306,950","269,350","78,272","427,344","448,990","431,936","440,934","421,402","415,616","411,726","424,560","430,074","429,668","444,608","461,782","444,520","420,201","393,726","381,399",n/a,"382,991","373,165","381,827","404,851","399,126","378,904"
Borth,Wales,Sir Ceredigion - Ceredigion,Transport for Wales,No,,,52.49103189,-4.050177082,,"44,902","32,764","8,444","55,634","61,446","67,162","64,498","61,468","53,662","52,712","55,848","56,790","60,088","60,892","50,508","52,735","47,263","47,643","39,527",n/a,"37,040","35,260","34,504","34,418","32,906","32,455"
Bosham,England,West Sussex,GTR,No,,,50.84274729,-0.847431236,,"59,204","48,246","22,890","70,160","76,172","77,102","63,076","102,358","103,510","103,152","109,986","103,850","102,190","90,532","89,138","91,894","87,411","80,743","87,884",n/a,"92,953","81,686","70,949","73,905","66,013","63,459"
Boston,England,Lincolnshire,East Midlands Railway,No,,,52.97808835,-0.031003237,,"200,092","170,976","59,220","210,854","226,940","217,844","211,824","207,368","209,618","206,994","213,034","216,818","207,822","205,046","198,898","204,268","208,880","219,327","221,405",n/a,"209,417","207,303","203,119","195,614","195,395","133,310"
Botley ,England,Hampshire,South Western Railway,No,,,50.91645462,-1.259236505,,"125,444","104,380","34,436","136,918","156,754","162,070","163,836","157,654","154,388","143,280","142,846","135,464","135,936","130,460","120,054","99,200","91,700","87,987","80,925",n/a,"69,663","66,356","65,368","58,937","56,271","56,385"
Bottesford,England,Leicestershire,East Midlands Railway,No,,,52.94461417,-0.794842712,,"48,508","35,752","9,368","62,464","63,628","64,722","65,464","61,268","57,446","47,422","50,820","57,488","52,378","50,902","51,498","48,905","40,514","31,191","29,251",n/a,"25,215","26,634","30,528","27,542","22,491","22,798"
Bourne End,England,Buckinghamshire,Great Western Railway,No,,,51.57711736,-0.710473547,,"194,058","166,912","61,366","261,122","266,376","243,296","257,156","251,288","244,818","252,244","249,672","239,870","237,216","211,690","228,978","233,195","238,018","240,163","253,787",n/a,"243,180","244,373","251,720","232,470","219,359","215,287"
Bournemouth,England,Dorset,South Western Railway,No,,,50.72727466,-1.864503165,,"2,430,124","2,010,170","698,046","2,526,398","2,751,866","2,721,494","2,755,772","2,688,160","2,624,682","2,623,628","2,505,754","2,604,162","2,582,864","2,519,100","2,542,092","2,455,927","2,310,099","2,120,747","2,199,464",n/a,"2,108,166","2,020,414","1,971,227","1,901,481","1,779,697","1,690,183"
Bourneville,England,West Midlands,West Midlands Railway,No,,,52.42696458,-1.926424059,,"702,378","510,706","199,738","1,319,408","1,331,472","1,218,288","1,167,304","1,106,334","1,034,224","1,027,470","976,424","984,150","785,842","772,234","764,076","466,944","405,876","374,809","342,156",n/a,"295,231","278,547","260,693","255,877","255,814","231,982"
Bow Brickhill,England,Buckinghamshire,West Midlands Railway,No,,,52.00430018,-0.696077834,,"18,532","17,046","12,178","41,340","43,410","38,846","40,626","43,016","40,918","36,836","34,116","33,638","35,894","26,938","31,640","28,648","26,993","19,336","22,415",n/a,"24,928","21,835","21,262","23,772","23,548","25,019"
Bow Street,Wales,Sir Ceredigion - Ceredigion,Transport for Wales,No,,,52.43991,-4.03035,,"23,282","13,694",306,N/A,N/A,N/A,N/A,N/A,N/A,N/A,N/A,N/A,N/A,N/A,N/A,N/A,N/A,N/A,N/A,n/a,N/A,N/A,N/A,N/A,N/A,N/A
Bowes Park,England,London (City Of),GTR,No,,,51.60701038,-0.120581955,,"402,952","306,554","157,546","672,086","788,328","863,586","869,578","918,126","958,680","968,580","957,914","814,584","725,062","617,792","559,322","559,055","313,738","213,675","174,304",n/a,"218,185","189,509","172,093","178,739","150,138","132,903"
Bowling,Scotland,West Dunbartonshire,ScotRail,No,,,55.9310849,-4.493842619,,"25,434","18,274","5,320","50,366","61,326","43,894","34,438","58,878","55,014","55,820","33,948","32,502","31,784","43,916","96,012","121,129","113,598","129,518","113,682",n/a,"151,079","154,921","168,664","194,348","170,119","144,687"
Box Hill & Westhumble ,England,Surrey,GTR,No,,,51.25401068,-0.328489953,,"105,948","93,512","48,982","115,152","102,486","98,210","97,854","101,864","102,914","83,914","103,962","81,126","62,772","58,588","53,682","51,376","44,548","42,204","43,255",n/a,"36,070","33,476","38,309","49,643","44,836","43,955"
